,price,address,mls,sqft,Community,beds,baths,Building Type,Air Conditioning,Heating Type,lat,long,Frontage,Land Depth,no amenity,gym,pool,party room,security,parking,balcony,indoor pool,recreation,sauna,storage - locker,guest suites,outdoor pool,bbqs allowed,bike storage,carpet free,in suite laundry,media room,tennis court,car wash,squash/racquet court
0,888000.0,"1515 - 8 HILLCREST AVENUEToronto (Willowdale East), Ontario M2N3N5",C10650046,1099.5,Willowdale East,3.0,2.0,Apartment,Central air conditioning,Forced air (Natural gas),43.7679369,-79.4121605,,,0,0,0,0,0,0,1,0,1,1,0,0,0,0,0,0,0,0,0,0,0
1,639000.0,"1502 - 10 YORK STREETToronto (Waterfront Communities), Ontario M5J2L9",C10640404,549.5,Waterfront Communities C1,1.0,1.0,Apartment,Central air conditioning,Forced air (Natural gas),43.6411454,-79.38131249999999,,,0,0,0,0,0,0,0,0,0,0,0,0,0,0,0,0,1,0,0,0,0
2,399900.0,"708 - 60 TOWN CENTRE COURTToronto (Bendale), Ontario M1P0B1",E10541395,649.5,Bendale,2.0,1.0,Apartment,Central air conditioning,Forced air (Natural gas),43.7734076,-79.2561255,,,0,0,1,1,1,1,1,0,0,0,1,0,0,0,0,0,0,0,0,0,0
3,855000.0,"506 - 12 REAN DRIVEToronto (Bayview Village), Ontario M2K3C6",C10511289,1299.5,Bayview Village,2.0,2.0,Apartment,Central air conditioning,Forced air (Natural gas),43.7666713,-79.3832156,,,0,0,0,0,0,1,1,0,1,0,1,0,0,0,0,1,0,0,0,0,0
4,2749000.0,"12 EUCLID AVENUEToronto (Highland Creek), Ontario M1C1J6",E10477077,4250.0,Highland Creek,4.0,6.5,Detached,Central air conditioning,Forced air (Natural gas),43.7941925,-79.1739661,50.666666666666664,148 ft,0,0,0,0,0,0,0,0,0,0,0,0,0,0,0,1,0,0,0,0,0
5,2249000.0,"75 KENILWORTH AVENUEToronto (The Beaches), Ontario M4L3S4",E10477061,1750.0,The Beaches,4.0,5.5,Detached,Central air conditioning,Forced air (Natural gas),43.668164,-79.30104949999999,25.0,115 ft,0,0,0,0,0,0,0,0,0,0,0,0,0,0,0,0,0,0,0,0,0
6,849900.0,"1603 - 10 YONGE STREETToronto (Waterfront Communities), Ontario M5E1R4",C10477072,949.5,Waterfront Communities C1,2.0,2.0,Apartment,Central air conditioning,Forced air (Natural gas),43.6424869,-79.37541740000002,,,0,0,0,0,0,0,1,0,0,0,1,0,0,0,0,0,0,0,0,0,0
7,599900.0,"2191 YONGE STREETToronto (Mount Pleasant West), Ontario M4S3H8",C10477067,649.5,Mount Pleasant West,1.0,1.0,,Central air conditioning,Forced air (Natural gas),43.7056569,-79.3974547,,,0,0,1,1,1,1,0,0,0,0,0,0,0,0,0,1,0,0,0,0,0
8,648800.0,"502 - 5 CONCORDE PLACEToronto (Banbury-Don Mills), Ontario M3C3M8",C10477051,1099.5,Banbury-Don Mills,2.0,2.0,Apartment,Central air conditioning,Forced air (Electric),43.729872,-79.3272799,,,0,0,0,1,0,1,0,0,0,0,1,0,0,0,0,0,0,0,0,0,0
9,610000.0,"201 - 11 NEILSON DRIVEToronto (Markland Wood), Ontario M9C1V4",W10477042,1099.5,Markland Wood,3.0,2.5,Apartment,,Radiant heat (Natural gas),43.6280022,-79.5619407,,,0,0,0,0,0,0,1,0,0,0,0,0,0,0,0,0,0,0,0,0,0
10,499900.0,"505 - 2 RIDELLE AVENUEToronto (Forest Hill North), Ontario M6B1H4",C9348290,549.5,Forest Hill North,1.0,1.0,Apartment,,Radiant heat (Natural gas),43.70730529999999,-79.4273147,,,0,0,0,0,0,0,0,0,0,0,1,0,0,0,0,0,0,0,0,0,0
11,375000.0,"407 - 235 GRANDRAVINE DRIVEToronto (Glenfield-Jane Heights), Ontario M3N1J2",W10477032,649.5,Glenfield-Jane Heights,1.0,1.0,Apartment,,Radiant heat (Natural gas),43.748583,-79.5059285,,,0,0,0,0,0,0,1,0,0,1,0,0,0,0,0,1,1,0,0,0,0
12,539900.0,"503 - 117 GERRARD STREET EToronto (Church-Yonge Corridor), Ontario M5B2L4",C10463710,749.5,Church-Yonge Corridor,2.0,1.0,Apartment,Central air conditioning,Forced air (Natural gas),43.6602378,-79.3760305,,,0,0,0,0,1,1,0,0,0,1,0,0,0,0,0,0,0,0,0,0,0
13,3600000.0,"68 YORKVILLE Avenue Unit# 304Toronto, Ontario M5R3V7",40680368,2374.0,,3.0,3.0,Apartment,Central air conditioning,Heat Pump,43.6715317,-79.3904948,,,0,0,0,1,0,0,1,0,0,0,0,0,0,0,0,0,0,0,0,0,0
14,2249000.0,"75 KENILWORTH AvenueToronto, Ontario M4L3S4",40679294,2150.0,,4.0,5.5,Detached,Central air conditioning,"Forced air, (Natural gas)",43.668164,-79.30104949999999,25.0,115 ft,0,0,0,0,0,0,0,0,0,0,0,0,0,0,0,0,0,0,0,0,0
15,699990.0,"602 - 50 ORDNANCE STREETToronto (Niagara), Ontario M6K1A2",C10463676,649.5,Niagara,2.0,1.0,Apartment,"Central air conditioning, Ventilation system",Forced air (Natural gas),43.6397778,-79.40995889999999,,,0,0,1,0,1,0,1,0,1,0,0,0,0,0,0,1,0,0,0,0,0
16,980000.0,"741 - 15 MERCHANT'S WHARFToronto (Waterfront Communities), Ontario M5A0N8",C10463657,749.5,Waterfront Communities C8,2.0,2.0,Apartment,Central air conditioning,Forced air (Natural gas),43.6447502,-79.3639017,,,0,0,0,0,0,0,0,0,0,0,1,0,0,0,0,1,0,0,0,0,0
17,655000.0,"512 - 24 WELLESLEY STREET WToronto (Bay Street Corridor), Ontario M4Y2X6",C10463639,749.5,Bay Street Corridor,2.0,2.5,Apartment,Central air conditioning,Forced air (Natural gas),43.6648384,-79.3860754,,,0,0,0,1,1,0,0,0,0,0,1,0,0,0,0,0,0,0,0,0,0
18,751176.0,"1902 - 14 YORK STREETToronto (Waterfront Communities), Ontario M5J0B1",C10463650,749.5,Waterfront Communities C1,2.0,2.0,Apartment,Central air conditioning,Forced air,43.64195290000001,-79.38201629999999,,,0,0,0,0,0,0,1,0,0,0,0,0,0,0,0,0,0,0,0,0,0
19,529000.0,"911 - 81 NAVY WHARF COURTToronto (Waterfront Communities), Ontario M5V3S2",C10461325,649.5,Waterfront Communities C1,2.0,1.0,Apartment,Central air conditioning,Forced air (Natural gas),43.6413424,-79.3914198,,,0,0,1,1,1,1,1,0,0,0,0,0,0,0,0,0,0,0,0,0,0
20,599000.0,"1150 - 313 RICHMOND STREET EToronto (Moss Park), Ontario M5A4S7",C10461890,749.5,Moss Park,2.0,1.0,Apartment,Central air conditioning,Forced air (Natural gas),43.65337,-79.3684816,,,0,0,0,0,0,0,1,0,0,0,0,0,0,0,0,0,0,0,0,0,0
21,640000.0,"2011 - 8 YORK STREETToronto (Waterfront Communities), Ontario M5J2Y2",C10456114,649.5,Waterfront Communities C1,2.0,1.0,Apartment,Central air conditioning,Forced air (Natural gas),43.640542,-79.38099489999999,,,0,0,0,0,0,0,1,0,0,0,1,0,0,0,0,0,0,0,0,0,0
22,619999.0,"105 - 2772 KEELE STREETToronto (Downsview-Roding-CFB), Ontario M3M0A3",W10454154,949.5,Downsview-Roding-CFB,2.0,2.0,Apartment,Central air conditioning,Forced air (Natural gas),43.72761939999999,-79.4825908,,,0,0,0,1,0,1,1,0,0,0,1,0,0,0,0,0,0,0,0,0,0
23,679888.0,"913 - 103 THE QUEENSWAY AVENUEToronto (High Park-Swansea), Ontario M6S5B3",W10454136,849.5,High Park-Swansea,2.0,2.0,Apartment,Central air conditioning,Forced air (Natural gas),43.6362926,-79.47046279999999,,,0,0,1,0,1,0,1,0,1,0,1,0,0,0,0,0,1,0,0,0,0
24,399800.0,"502 - 60 PAVANE LINKWAY WAYToronto (Flemingdon Park), Ontario M3C1A2",C10454155,849.5,Flemingdon Park,3.0,1.0,Apartment,Window air conditioner,Baseboard heaters,43.71137239999999,-79.3225939,,,0,0,0,0,0,0,1,0,0,0,0,0,0,0,0,0,0,0,0,0,0
25,599000.0,"1510 - 30 ORDNANCE STREETToronto (Niagara), Ontario M6K0C8",C10454129,649.5,Niagara,1.0,1.5,Apartment,Central air conditioning,Forced air (Natural gas),43.63983169999999,-79.4098558,,,0,0,1,1,1,1,1,0,0,0,1,0,0,0,0,0,1,0,0,0,0
26,650000.0,"2301 - 135 ANTIBES DRIVEToronto (Westminster-Branson), Ontario M2R2Z1",C10454134,1299.5,Westminster-Branson,2.0,2.0,Apartment,Central air conditioning,Forced air (Natural gas),43.7803137,-79.44552300000001,,,0,0,0,0,0,1,0,0,0,1,1,0,0,0,0,1,0,0,0,0,0
27,799900.0,"31 - 184 WOODY VINE WAYToronto (Bayview Village), Ontario M2J4H5",C10453964,1299.5,Bayview Village,3.0,3.5,Row / Townhouse,Central air conditioning,Forced air (Natural gas),43.7888753,-79.3685844,,,0,0,0,0,0,1,0,0,0,0,0,0,0,0,0,0,0,0,0,0,0
28,626000.0,"1116 - 509 BEECROFT ROADToronto (Willowdale West), Ontario M2N0A3",C10454126,749.5,Willowdale West,2.0,1.0,Apartment,Central air conditioning,Forced air (Natural gas),43.7788678,-79.417745,,,0,0,0,1,1,1,1,0,0,1,1,0,0,0,0,0,0,0,0,0,0
29,528900.0,"3001 - 70 ANNIE CRAIG DRIVEToronto (Mimico), Ontario M8V0G2",W10446387,549.5,Mimico,1.0,1.0,Apartment,Central air conditioning,Forced air (Natural gas),43.6246558,-79.4791133,,,0,0,0,1,1,1,1,0,0,0,1,0,0,0,0,1,0,0,0,0,0
30,585000.0,"1103 - 75 QUEENS WHARF ROAD EToronto (Waterfront Communities), Ontario M5V0J8",C10447613,649.5,Waterfront Communities C1,2.0,1.0,Apartment,Central air conditioning,Forced air (Natural gas),43.6386359,-79.39805319999999,,,0,0,0,0,0,0,0,0,0,0,0,0,0,0,0,0,0,0,0,0,0
31,999900.0,"S305 - 8 OLYMPIC GDN DRIVEToronto (Newtonbrook East), Ontario M2M0B9",C10447471,1099.5,Newtonbrook East,3.0,3.5,Row / Townhouse,Central air conditioning,Forced air (Natural gas),43.7850291,-79.41599169999999,,,0,0,0,0,0,0,0,0,0,0,1,0,0,0,0,0,0,0,0,0,0
32,629000.0,"2712 - 251 JARVIS STREETToronto (Moss Park), Ontario M5B0C3",C10445471,549.5,Moss Park,2.0,1.0,Apartment,Central air conditioning,Forced air (Natural gas),43.65737670000001,-79.3744501,,,0,0,1,0,1,0,1,0,0,0,0,0,0,0,0,0,0,0,0,0,0
33,900000.0,"44 LADYSBRIDGE DRIVEToronto (Morningside), Ontario M1G3H7",E10442857,1300.0,Morningside,3.0,2.0,Detached,Central air conditioning,Forced air (Natural gas),43.7674506,-79.2058149,50.0,113 ft,0,0,0,0,0,0,0,0,0,0,0,0,0,0,0,0,0,0,0,0,0
34,1274900.0,"48 WESTBROOK AVENUEToronto (Woodbine-Lumsden), Ontario M4C2G4",E10442840,1300.0,Woodbine-Lumsden,3.0,4.0,Detached,Central air conditioning,Forced air (Natural gas),43.6935251,-79.30628519999999,25.0,100 ft,0,0,0,0,0,0,0,0,0,0,0,0,0,0,0,0,0,0,0,0,0
35,785000.0,"2505 - 159 DUNDAS STREET EToronto (Church-Yonge Corridor), Ontario M5B1E4",C10442881,749.5,Church-Yonge Corridor,2.0,2.0,Apartment,Central air conditioning,Forced air (Natural gas),43.6567653,-79.3749976,,,0,0,0,0,0,0,1,0,0,0,1,0,0,0,0,0,0,0,0,0,0
36,599000.0,"2202 - 70 TEMPERANCE STREETToronto (Bay Street Corridor), Ontario M5H0B1",C10442895,549.5,Bay Street Corridor,2.0,1.0,Apartment,Central air conditioning,Forced air (Electric),43.6506565,-79.381507,,,0,0,0,0,1,0,1,0,0,0,1,0,0,0,0,0,1,0,0,0,0
37,568000.0,"201 - 25 RICHMOND STREET EToronto (Church-Yonge Corridor), Ontario M5C0A6",C10442819,549.5,Church-Yonge Corridor,1.0,1.0,Apartment,Central air conditioning,Forced air (Natural gas),43.6519017,-79.37721650000002,,,0,0,1,0,1,1,1,0,0,0,1,0,0,0,0,0,0,0,0,0,0
38,535990.0,"202 - 25 NEIGHBOURHOOD LANEToronto (Stonegate-Queensway), Ontario M8Y0C4",W10442804,549.5,Stonegate-Queensway,2.0,1.0,Apartment,Central air conditioning,Forced air (Natural gas),43.6382223,-79.48922499999999,,,0,0,0,1,1,1,1,0,1,0,1,0,0,0,0,0,0,0,0,0,0
39,1599000.0,"212 - 629 KING STREET WToronto (Waterfront Communities), Ontario M5V0G9",C10442878,1099.5,Waterfront Communities C1,2.0,2.5,Apartment,Central air conditioning,Forced air (Natural gas),43.644001,-79.4015398,,,0,0,0,0,1,0,0,0,0,0,1,0,0,0,0,0,1,0,0,0,0
40,899000.0,"902 - 15 MERCHANTS' WHARF EToronto (Waterfront Communities), Ontario M5A0N8",C10442813,749.5,Waterfront Communities C8,2.0,2.0,Apartment,Central air conditioning,Forced air (Natural gas),43.6452569,-79.3642909,,,0,0,0,0,0,0,1,0,0,0,1,0,0,0,0,0,0,0,0,0,0
41,380800.0,"103 - 2550 BATHURST STREETToronto (Forest Hill North), Ontario M6B2Z2",C10442783,749.5,Forest Hill North,1.0,1.0,Apartment,Window air conditioner,Radiant heat,43.706599,-79.4271687,,,0,0,0,0,0,1,0,0,0,0,1,0,0,0,0,1,1,0,0,0,0
42,1499000.0,"4 - 18 GREENBRIAR ROADToronto (Bayview Village), Ontario M2K0G7",C10442777,2124.5,Bayview Village,4.0,3.5,Row / Townhouse,Central air conditioning,Forced air (Natural gas),43.7668197,-79.3798415,,,0,0,0,0,0,0,0,0,0,0,0,0,0,0,0,0,0,0,0,0,0
43,788000.0,"1018 - 270 DUFFERIN STREETToronto (South Parkdale), Ontario M6K3R4",W10442762,749.5,South Parkdale,3.0,2.0,Apartment,Central air conditioning,Forced air (Natural gas),43.6384128,-79.4276448,,,0,0,0,0,0,0,0,0,0,0,0,0,0,0,0,0,1,0,0,0,0
44,642000.0,"1301 - 215 FORT YORK BOULEVARDToronto (Niagara), Ontario M5V4A2",C10442747,649.5,Niagara,2.0,1.0,Apartment,Central air conditioning,Forced air (Natural gas),43.6366434,-79.4046054,,,0,0,1,1,1,0,1,0,1,0,0,0,0,0,0,1,1,0,0,0,0
45,2190000.0,"504 - 346 DAVENPORT ROADToronto (Annex), Ontario M5R1K6",C10442760,1499.5,Annex,2.0,3.5,Apartment,Central air conditioning,Forced air (Natural gas),43.6752924,-79.4013484,,,0,0,0,0,1,0,0,0,0,0,1,0,0,0,0,1,0,0,0,0,0
46,1249990.0,"TH07 - 5 DEFRIES STREETToronto (Regent Park), Ontario M5A0W7",C10442715,1099.5,Regent Park,3.0,3.0,Apartment,Central air conditioning,Forced air (Natural gas),43.6605705,-79.3563724,,,0,0,1,1,1,1,1,0,1,0,0,0,0,0,0,0,0,0,0,0,0
47,524900.0,"327 - 7 SMITH CRESCENTToronto (Stonegate-Queensway), Ontario M8Z0G3",W10442670,549.5,Stonegate-Queensway,1.0,1.0,Apartment,Central air conditioning,Forced air (Natural gas),43.62601859999999,-79.5060463,,,0,0,0,0,0,0,1,0,0,0,0,0,0,0,0,0,0,0,0,0,0
48,479000.0,"706 - 50 LOTHERTON PATHWAYToronto (Yorkdale-Glen Park), Ontario M6B2G8",W10442666,649.5,Yorkdale-Glen Park,3.0,1.0,Apartment,"Window air conditioner, Ventilation system",Baseboard heaters (Electric),43.7058451,-79.46703149999999,,,0,0,1,1,0,1,0,0,0,0,0,0,0,0,0,1,1,0,0,0,0
49,705000.0,"1002 - 1 BLOOR STREET EToronto (Church-Yonge Corridor), Ontario M4W0A8",C10442674,549.5,Church-Yonge Corridor,1.0,1.0,Apartment,Central air conditioning,Forced air (Natural gas),43.6701928,-79.38624209999999,,,0,0,1,0,1,0,1,0,0,0,1,0,0,0,0,1,0,0,0,0,0
50,478888.0,"907 - 3088 KENNEDY ROADToronto (Steeles), Ontario M1V5M4",E10442618,849.5,Steeles,2.0,2.0,Apartment,Central air conditioning,Forced air (Natural gas),43.8108403,-79.3017471,,,0,0,0,0,0,0,0,0,0,0,1,0,0,0,0,1,0,0,0,0,0
51,499990.0,"708 - 21 OVERLEA BOULEVARDToronto (Thorncliffe Park), Ontario M4H1P2",C10442661,649.5,Thorncliffe Park,1.0,1.0,Apartment,Central air conditioning,Forced air (Natural gas),43.704116,-79.3500159,,,0,0,0,0,0,1,0,0,1,1,1,0,0,0,0,1,0,0,0,0,0
52,779000.0,"1213 - 50 POWER STREETToronto (Moss Park), Ontario M5A0V3",C10442637,849.5,Moss Park,2.0,2.0,Apartment,Central air conditioning,Forced air (Natural gas),43.6543821,-79.3630452,,,0,0,0,1,0,0,1,0,0,0,1,0,0,0,0,0,0,0,0,0,0
53,1808000.0,"4305 - 16 HARBOUR STREETToronto (Waterfront Communities), Ontario M5J2Z7",C10442621,1499.5,Waterfront Communities C1,3.0,2.0,Apartment,Central air conditioning,Forced air (Natural gas),43.643032,-79.37684689999999,,,0,0,1,0,1,1,1,0,0,0,1,0,0,0,0,1,1,0,0,0,0
54,669000.0,"802 - 8 DOVERCOURT ROADToronto (Little Portugal), Ontario M6J0B6",C10442622,649.5,Little Portugal,2.0,1.0,Apartment,Central air conditioning,Forced air (Natural gas),43.64170439999999,-79.4218753,,,0,0,0,1,1,0,1,0,1,0,0,0,0,0,0,0,0,0,0,0,0
55,634900.0,"3401 - 33 SHORE BREEZE DRIVEToronto (Mimico), Ontario M8V0G1",W10442558,749.5,Mimico,1.0,1.0,Apartment,Central air conditioning,Forced air (Natural gas),43.6240074,-79.4792379,,,0,0,1,1,1,1,1,0,0,0,1,0,0,0,0,1,1,0,0,0,0
56,668888.0,"502 - 1169 QUEEN STREET WToronto (Little Portugal), Ontario M6J0A4",C10442534,649.5,Little Portugal,2.0,1.0,Apartment,Central air conditioning,Forced air (Natural gas),43.6422546,-79.42581419999999,,,0,0,0,1,1,1,1,0,0,0,1,0,0,0,0,0,1,0,0,0,0
57,549000.0,"1001 - 25 GRENVILLE STREETToronto (Bay Street Corridor), Ontario M4Y2X5",C10442531,649.5,Bay Street Corridor,1.0,1.0,Apartment,Central air conditioning,Forced air,43.6617585,-79.3846976,,,0,0,0,0,1,0,0,0,0,0,0,0,0,0,0,1,0,0,0,0,0
58,584900.0,"165 LEGION Road Unit# 2333Toronto, Ontario M8Y0B3",40680272,675.0,,2.0,1.0,Apartment,Central air conditioning,Forced air,43.6241214,-79.48801,,,0,0,1,0,0,0,1,0,0,0,0,0,0,0,0,0,0,0,0,0,0
59,899900.0,"230 GILBERT AVENUEToronto (Caledonia-Fairbank), Ontario M6E4W5",W10442514,900.0,Caledonia-Fairbank,3.0,2.0,Detached,Central air conditioning,Forced air (Natural gas),43.683238,-79.45977160000001,25.0,110 ft,0,0,0,0,0,0,0,0,0,0,0,0,0,0,0,0,0,0,0,0,0
60,579000.0,"57 - 68 WINSTON PARK BOULEVARDToronto (Downsview-Roding-CFB), Ontario M3K1C3",W10442006,849.5,Downsview-Roding-CFB,2.0,2.5,Row / Townhouse,Central air conditioning,Forced air (Natural gas),43.7302966,-79.4653579,,,0,0,0,0,0,0,0,0,0,0,1,0,0,0,0,0,1,0,0,0,0
61,584900.0,"2333 - 165 LEGION ROADToronto (Mimico), Ontario M8Y0B3",W10442000,649.5,Mimico,2.0,1.0,Apartment,Central air conditioning,Forced air (Electric),43.6241214,-79.48801,,,0,0,1,0,1,1,1,0,0,0,1,0,0,0,0,1,0,0,0,0,0
62,1790000.0,"203 MCKEE AVENUEToronto (Willowdale East), Ontario M2N4C9",C10442522,2250.0,Willowdale East,3.0,2.0,Detached,Central air conditioning,Forced air (Natural gas),43.7754755,-79.4008308,50.0,150 ft,0,0,1,0,0,0,0,0,0,0,0,0,0,0,0,0,0,0,0,0,0
63,799000.0,"211 - 5444 YONGE STREETToronto (Willowdale West), Ontario M2N6J4",C10442496,1299.5,Willowdale West,3.0,2.0,Apartment,Central air conditioning,Forced air (Natural gas),43.7765236,-79.41560290000001,,,0,0,1,0,1,1,1,0,0,0,0,0,0,0,0,0,0,0,0,0,0
64,798000.0,"5 - 745 STEELES AVENUE WToronto (Newtonbrook West), Ontario M2R2S5",C10441978,1299.5,Newtonbrook West,4.0,3.5,Row / Townhouse,Central air conditioning,Forced air (Natural gas),43.79335040000001,-79.4386774,,,0,0,0,0,0,0,0,0,0,0,0,0,0,0,0,0,0,0,0,0,0
65,628000.0,"3608 - 101 PETER STREET SToronto (Waterfront Communities), Ontario M5V0G6",C10441974,549.5,Waterfront Communities C1,1.0,1.0,Apartment,Central air conditioning,Forced air (Natural gas),43.6476832,-79.3925457,,,0,0,0,1,1,0,1,0,0,0,0,0,0,0,0,0,0,0,0,0,0
66,508340.0,"115 - 360 RIDELLE AVENUEToronto (Briar Hill-Belgravia), Ontario M6B1K1",W10441935,1099.5,Briar Hill-Belgravia,2.0,2.0,Apartment,,Baseboard heaters (Natural gas),43.7048516,-79.43991009999999,,,0,0,1,1,0,1,1,0,0,1,1,0,0,0,0,0,0,0,0,0,0
67,1295000.0,"22 - 189 LA ROSE AVENUEToronto (Willowridge-Martingrove-Richview), Ontario M9P3W1",W10441876,2374.5,Willowridge-Martingrove-Richview,4.0,5.0,Row / Townhouse,Central air conditioning,Forced air (Natural gas),43.6831972,-79.5278287,,,0,0,0,0,0,0,1,0,0,0,0,0,0,0,0,0,0,0,0,0,0
68,1199888.0,"2 DELBASSO COURTToronto (Kingsview Village-The Westway), Ontario M9R1W6",W10441868,1300.0,Kingsview Village-The Westway,5.0,4.0,Detached,Central air conditioning,Forced air (Natural gas),43.7011525,-79.5526551,45.0,"110 ft ,3 in",0,0,0,0,0,0,0,0,0,0,0,0,0,0,0,0,0,0,0,0,0
69,699800.0,"46 - 341 MILITARY TRAILToronto (Morningside), Ontario M1E4E4",E10441929,1099.5,Morningside,3.0,2.5,Row / Townhouse,Central air conditioning,Radiant heat,43.7861707,-79.2119159,,,0,0,0,0,0,0,0,0,0,0,0,0,0,0,0,1,0,0,0,0,0
70,529000.0,"610 - 50 BRIAN HARRISON WAYToronto (Bendale), Ontario M1P5J4",E10441824,649.5,Bendale,2.0,1.0,Apartment,Central air conditioning,Forced air (Natural gas),43.773816,-79.258804,,,0,0,1,0,1,0,0,0,0,0,1,0,0,0,0,1,0,0,0,1,0
71,848000.0,"7702 - 55 COOPER STREETToronto (Waterfront Communities), Ontario M5E0G1",C10441880,649.5,Waterfront Communities C8,2.0,1.0,Apartment,Central air conditioning,Forced air (Natural gas),43.6449002,-79.37180579999999,,,0,0,0,1,1,1,1,0,1,0,0,0,0,0,0,1,0,0,0,0,0
72,986000.0,"86 VILLAGE GREENWAYToronto (Henry Farm), Ontario M2J1K8",C10441862,1299.5,Henry Farm,4.0,2.5,Row / Townhouse,Central air conditioning,Forced air (Natural gas),43.76851389999999,-79.3431272,,,0,0,1,1,0,0,0,0,1,0,0,0,0,0,0,0,0,0,0,0,0
73,509000.0,"909 - 1 REAN DRIVEToronto (Bayview Village), Ontario M2K3C1",C10441857,649.5,Bayview Village,1.0,1.0,Apartment,Central air conditioning,Forced air (Natural gas),43.76515029999999,-79.3834741,,,0,0,1,0,1,1,1,0,0,0,1,0,0,0,0,0,0,0,0,0,0
74,1033000.0,"708 - 3018 YONGE STREETToronto (Lawrence Park South), Ontario M4N0A5",C10441783,849.5,Lawrence Park South,2.0,2.0,Apartment,Central air conditioning,Forced air (Natural gas),43.7244341,-79.4022961,,,0,0,0,0,0,0,1,0,0,0,1,0,0,0,0,1,0,0,0,0,0
75,679000.0,"516 - 50 GEORGE BUTCHART DRIVEToronto (Downsview-Roding-CFB), Ontario M3K0C9",W10441782,749.5,Downsview-Roding-CFB,2.0,2.0,Apartment,Central air conditioning,Forced air (Electric),43.73654519999999,-79.48387869999999,,,0,0,0,0,1,1,0,0,0,0,1,0,0,0,0,1,0,0,0,0,0
76,499999.0,"1612 - 121 LING ROADToronto (West Hill), Ontario M1E4Y2",E10441745,949.5,West Hill,2.0,2.0,Apartment,Wall unit,Forced air (Electric),43.7684072,-79.1819742,,,0,0,1,1,0,0,1,0,1,0,1,0,0,0,0,0,0,0,0,0,0
77,499000.0,"616 - 120 HARRISON GARDEN BOULEVARDToronto (Willowdale East), Ontario M2N0H1",C10441780,549.5,Willowdale East,2.0,1.0,Apartment,Central air conditioning,Forced air (Natural gas),43.7580581,-79.40333679999999,,,0,0,0,0,1,1,1,0,0,0,1,0,0,0,0,1,0,0,0,0,0
78,570000.0,"220 - 2020 BATHURST STREETToronto (Humewood-Cedarvale), Ontario M5P0A6",C10441631,549.5,Humewood-Cedarvale,2.0,1.0,Apartment,Central air conditioning,Forced air (Natural gas),43.70078609999999,-79.4256293,,,0,0,0,1,1,0,1,0,1,0,0,0,0,0,0,1,1,0,0,0,0
79,829000.0,"4202 - 2230 LAKE SHORE BOULEVARD WToronto (Mimico), Ontario M8V0B2",W10441623,849.5,Mimico,2.0,2.0,Apartment,Central air conditioning,Forced air (Natural gas),43.6215812,-79.4826669,,,0,0,1,1,1,0,1,0,1,0,1,0,0,0,0,1,0,0,0,0,0
80,1499000.0,"26 SAYBROOK AVENUEToronto (Stonegate-Queensway), Ontario M8Z2V4",W10441609,1300.0,Stonegate-Queensway,3.0,2.0,Detached,Central air conditioning,Forced air (Natural gas),43.6371512,-79.5177558,50.0,125 ft,0,0,0,0,0,0,0,0,0,0,0,0,0,0,0,0,0,0,0,0,0
81,1099000.0,"3038 ISLINGTON AVENUEToronto (Humber Summit), Ontario M9L0A6",W10441582,2250.0,Humber Summit,3.0,4.5,Row / Townhouse,Central air conditioning,Forced air (Natural gas),43.7608482,-79.57268049999999,36.5,"76 ft ,9 in",0,0,0,0,0,0,0,0,0,0,0,0,0,0,0,0,0,0,0,0,0
82,499000.0,"808 - 15 LONDON GREEN COURTToronto (Glenfield-Jane Heights), Ontario M3N1K4",W10441563,1099.5,Glenfield-Jane Heights,2.0,2.5,Apartment,Central air conditioning,Hot water radiator heat,43.754451,-79.5101285,,,0,0,1,1,0,1,1,0,0,0,1,0,0,0,0,0,1,0,0,0,0
83,519000.0,"208 - 710 HUMBERWOOD BOULEVARDToronto (West Humber-Clairville), Ontario M9W6S4",W10441523,649.5,West Humber-Clairville,2.0,1.0,Apartment,Central air conditioning,Forced air (Natural gas),43.7247822,-79.6160393,,,0,0,0,0,0,0,1,0,0,0,1,0,0,0,0,0,0,0,0,0,0
84,600000.0,"524 - 5233 DUNDAS STREET WToronto (Islington-City Centre West), Ontario M9B6M1",W10441477,849.5,Islington-City Centre West,2.0,1.0,Apartment,Central air conditioning,Forced air (Natural gas),43.6388516,-79.53688509999999,,,0,0,0,0,0,0,1,0,0,0,0,0,0,0,0,0,0,0,0,0,0
85,1499000.0,"26 SAYBROOK AvenueEtobicoke, Ontario M8Z2V4",40679679,2520.0,,3.0,2.0,Detached,Central air conditioning,Forced air,43.6371512,-79.5177558,50.0,125 ft,0,0,0,0,0,0,0,0,0,0,0,0,0,0,0,0,0,0,0,0,0
86,1500000.0,"213 HEWARD AVENUEToronto (South Riverdale), Ontario M4M2T6",E10441514,2250.0,South Riverdale,3.0,3.0,Row / Townhouse,Central air conditioning,Forced air (Natural gas),43.6611961,-79.33862859999999,17.0,"44 ft ,10 in",0,0,0,0,0,0,0,0,0,0,0,0,0,0,0,0,0,0,0,0,0
87,409000.0,"1105 - 260 SACKVILLE STREETToronto (Regent Park), Ontario M5A0B3",C10441565,549.5,Regent Park,1.0,1.0,Apartment,Central air conditioning,Forced air,43.6611235,-79.3637664,,,0,0,0,1,1,1,1,0,1,0,1,0,0,0,0,0,1,0,0,0,0
88,715000.0,"307 - 125 REDPATH AVENUEToronto (Mount Pleasant West), Ontario M4S0B5",C10441556,649.5,Mount Pleasant West,2.0,2.0,Apartment,Central air conditioning,Forced air (Natural gas),43.7076393,-79.39241249999999,,,0,0,0,0,1,1,0,0,1,0,1,0,0,0,0,0,0,0,0,0,0
99,599000.0,"1010 - 20 EDGECLIFFE GOLFWAYToronto (Flemingdon Park), Ontario M3C3A4",C10441357,1099.5,Flemingdon Park,3.0,2.5,Apartment,Central air conditioning,Forced air (Natural gas),43.71955579999999,-79.3250352,,,0,0,1,0,0,1,0,0,0,1,0,0,0,0,0,0,0,0,0,0,0
100,948000.0,"312 - 70 QUEENS WHARF ROADToronto (Waterfront Communities), Ontario M5V0J2",C10441080,1099.5,Waterfront Communities C1,3.0,2.0,Apartment,Central air conditioning,Forced air (Natural gas),43.6385212,-79.39945449999999,,,0,0,0,0,0,0,1,0,0,0,1,0,0,0,0,0,0,0,0,0,0
101,549900.0,"1808 - 5 SOUDAN AVENUEToronto (Mount Pleasant West), Ontario M4S0B1",C10441089,549.5,Mount Pleasant West,2.0,1.0,Apartment,Central air conditioning,Forced air (Natural gas),43.70432539999999,-79.39716709999999,,,0,0,1,0,1,0,1,0,1,0,0,0,0,0,0,0,0,0,0,0,0
102,1198000.0,"60A SENTINEL ROADToronto (York University Heights), Ontario M3J3T6",W10441033,1750.0,York University Heights,5.0,3.0,Semi-detached,Central air conditioning,Forced air (Natural gas),43.7662073,-79.5014264,30.583333333333332,"111 ft ,4 in",0,0,0,0,0,0,0,0,0,0,0,0,0,0,0,0,0,0,0,0,0
103,500000.0,"306 - 1060 SHEPPARD AVENUE WToronto (York University Heights), Ontario M3J0G7",W10441023,549.5,York University Heights,1.0,1.0,Apartment,Central air conditioning,Forced air (Natural gas),43.7506089,-79.46386890000001,,,0,0,1,0,1,1,1,0,0,1,0,0,0,0,0,0,0,0,0,0,0
104,399999.0,"713 - 10 MARTHA EATON WAYToronto (Brookhaven-Amesbury), Ontario M6M5B3",W10441020,1099.5,Brookhaven-Amesbury,3.0,2.5,Apartment,Central air conditioning,Forced air (Natural gas),43.69730999999999,-79.48989999999999,,,0,0,0,0,0,1,1,0,0,0,0,0,0,0,0,0,0,0,0,0,0
105,449999.0,"103 - 5155 SHEPPARD AVENUE EToronto (Malvern), Ontario M1B0C8",E10441039,649.5,Malvern,2.0,1.0,Apartment,Central air conditioning,Forced air (Natural gas),43.7939684,-79.2365674,,,0,0,0,1,0,1,0,0,0,0,0,0,0,0,0,0,1,0,0,0,0
106,1099000.0,"602 - 1316 KINGSTON ROADToronto (Birchcliffe-Cliffside), Ontario M1N1P6",E10441027,1099.5,Birchcliffe-Cliffside,2.0,2.0,Apartment,Central air conditioning,Forced air (Natural gas),43.6850421,-79.2754071,,,0,0,0,0,0,0,0,0,0,0,1,0,0,0,0,0,0,0,0,0,0
107,620000.0,"523 - 270 WELLINGTON STREET WToronto (Waterfront Communities), Ontario M5V2V5",C10441026,649.5,Waterfront Communities C1,2.0,1.0,Apartment,Central air conditioning,Forced air (Natural gas),43.6447095,-79.3918782,,,0,0,0,0,0,0,1,0,0,0,1,0,0,0,0,0,1,0,0,0,0
108,1064900.0,"601 - 1316 KINGSTON ROADToronto (Birchcliffe-Cliffside), Ontario M1N1P6",E10441003,1099.5,Birchcliffe-Cliffside,2.0,2.0,Row / Townhouse,Central air conditioning,Forced air (Natural gas),43.6850421,-79.2754071,,,0,0,0,0,0,0,0,0,0,0,1,0,0,0,0,0,0,0,0,0,0
109,1175000.0,"201 - 42 CAMDEN STREETToronto (Waterfront Communities), Ontario M5V1V1",C10440983,1099.5,Waterfront Communities C1,2.0,2.0,Apartment,Central air conditioning,Heat Pump (Natural gas),43.6470844,-79.3979108,,,0,0,0,0,0,0,0,0,0,0,1,0,0,0,0,0,0,0,0,0,0
110,499000.0,"1501 - 110 CHARLES STREET EToronto (Church-Yonge Corridor), Ontario M4Y1T5",C10440990,549.5,Church-Yonge Corridor,1.0,1.0,Apartment,Central air conditioning,Forced air (Natural gas),43.66999,-79.380269,,,0,0,0,0,0,0,1,0,0,0,0,0,0,0,0,0,0,0,0,0,0
111,1650000.0,"E - 346 JARVIS STREETToronto (Church-Yonge Corridor), Ontario M4Y2G6",C10440981,1750.0,Church-Yonge Corridor,4.0,3.0,Row / Townhouse,Central air conditioning,Forced air (Natural gas),43.6631994,-79.3773095,25.0,"25 ft ,3 in",0,0,0,0,0,0,0,0,0,0,0,0,0,0,0,1,0,0,0,0,0
112,740000.0,"LPH 6 - 1 AVONDALE AVENUEToronto (Willowdale East), Ontario M2N7J1",C10440933,849.5,Willowdale East,2.0,2.5,,Central air conditioning,Forced air (Natural gas),43.7581513,-79.40946029999999,,,0,0,0,0,0,0,0,0,0,0,1,0,0,0,0,0,1,0,0,0,0
113,669900.0,"740 - 333 ADELAIDE STREET EToronto (Moss Park), Ontario M5A4T4",C10440891,749.5,Moss Park,1.0,1.0,Apartment,Central air conditioning,Forced air (Natural gas),43.651655,-79.3687142,,,0,0,0,0,1,0,1,0,0,1,0,0,0,0,0,0,0,0,0,0,0
114,880000.0,"4001 - 2212 LAKE SHORE BOULEVARD WToronto (Mimico), Ontario M8V0C2",W10440881,849.5,Mimico,2.0,2.0,Apartment,Central air conditioning,Forced air (Natural gas),43.6099377,-79.48719700000001,,,0,0,0,0,0,0,1,0,0,0,1,0,0,0,0,0,1,0,0,0,0
115,449900.0,"707 - 3 HICKORY TREE ROAD EToronto (Humber Heights), Ontario M9N3W5",W10440867,749.5,Humber Heights,1.0,1.0,Apartment,Central air conditioning,Forced air (Natural gas),,,,,0,0,1,1,1,1,0,0,0,0,1,0,0,0,0,0,0,0,0,0,0
116,879000.0,"BL131 - 131 BRICKWORKS LANEToronto (Junction Area), Ontario M6N5H8",W10440864,1499.5,Junction Area,3.0,4.5,Row / Townhouse,Central air conditioning,Forced air (Natural gas),43.6749519,-79.46828479999999,,,0,0,0,0,0,1,1,0,0,0,0,0,0,0,0,0,0,0,0,0,0
117,999999.0,"15 STOCK AVENUEToronto (Islington-City Centre West), Ontario M8Z5C3",W10440802,900.0,Islington-City Centre West,4.0,2.0,Detached,Central air conditioning,Forced air (Natural gas),43.62230419999999,-79.52568939999999,40.083333333333336,"142 ft ,1 in",0,0,0,0,0,0,0,0,0,0,0,0,0,0,0,0,0,0,0,0,0
118,2050000.0,"85 OAKRIDGE DRIVEToronto (Cliffcrest), Ontario M1M2A6",E10440850,4250.0,Cliffcrest,6.0,6.5,Detached,Central air conditioning,Forced air (Natural gas),43.7299789,-79.238573,38.75,"172 ft ,2 in",0,0,0,0,0,0,0,0,0,0,0,0,0,0,0,0,0,0,0,0,0
119,928000.0,"411 - 2191 YONGE STREETToronto (Mount Pleasant West), Ontario M4S3H8",C10440869,1099.5,Mount Pleasant West,2.0,3.5,Apartment,Central air conditioning,Forced air (Natural gas),43.7056569,-79.3974547,,,0,0,0,0,0,0,1,0,0,0,1,0,0,0,0,1,0,0,0,0,0
120,879000.0,"131 BRICKWORKS Lane Unit# BL131Toronto, Ontario M6N5H8",40679942,1515.0,,3.0,4.5,Row / Townhouse,Central air conditioning,"Forced air, (Natural gas)",43.6749519,-79.46828479999999,,,0,0,0,0,0,0,1,0,0,0,0,0,0,0,0,0,0,0,0,0,0
121,659000.0,"2605 - 70 FOREST MANOR ROADToronto (Henry Farm), Ontario M2J0A9",C10440790,649.5,Henry Farm,2.0,1.0,Apartment,Central air conditioning,Forced air (Natural gas),43.7745395,-79.3449495,,,0,0,1,1,1,1,1,0,0,0,1,0,0,0,0,1,0,0,0,0,0
122,1588000.0,"1002 - 60 COLBORNE STREETToronto (Church-Yonge Corridor), Ontario M5E0B7",C10440751,1299.5,Church-Yonge Corridor,2.0,2.0,Apartment,Central air conditioning,Forced air (Natural gas),43.649504,-79.3744937,,,0,0,0,0,0,0,1,0,0,0,1,0,0,0,0,0,1,0,0,0,0
123,1188000.0,"4228 - 5 MABELLE AVENUEToronto (Islington-City Centre West), Ontario M9A0C8",W10440726,1299.5,Islington-City Centre West,3.0,3.0,Apartment,Central air conditioning,Forced air (Natural gas),43.6466642,-79.5255121,,,0,0,0,0,0,0,1,0,0,0,1,0,0,0,0,1,0,0,0,0,0
124,1349000.0,"12 BROADFIELD DRIVEToronto (Markland Wood), Ontario M9C1L6",W10440691,1750.0,Markland Wood,4.0,4.0,Detached,Central air conditioning,Forced air (Natural gas),43.6276816,-79.57520819999999,55.0,"122 ft ,6 in",0,0,0,0,0,0,0,0,0,0,0,0,0,0,0,0,0,0,0,0,0
125,625000.0,"2012 - 3031 FINCH AVENUE WToronto (Humbermede), Ontario M9M0A3",W10440678,849.5,Humbermede,2.0,1.0,Row / Townhouse,Central air conditioning,Forced air (Natural gas),43.7465097,-79.5637998,,,0,0,0,0,0,1,1,0,0,0,1,0,0,0,0,0,0,0,0,0,0
126,850000.0,"431 MEADOWVALE ROADToronto (Centennial Scarborough), Ontario M1C1S6",E10440666,2250.0,Centennial Scarborough,3.0,4.5,Row / Townhouse,Central air conditioning,Forced air (Electric),43.7884381,-79.161658,0.0,40.43 m,0,0,0,0,0,0,0,0,0,0,0,0,0,0,0,0,0,0,0,0,0
127,569000.0,"536 - 60 HOMEWOOD AVENUEToronto (Cabbagetown-South St. James Town), Ontario M4Y2X4",C10440722,749.5,Cabbagetown-South St. James Town,2.0,1.5,Apartment,Central air conditioning,,43.66475579999999,-79.37572779999999,,,0,0,1,1,0,1,1,0,0,0,1,0,0,0,0,1,0,0,0,0,0
128,599900.0,"1711 - 3 REAN DRIVEToronto (Bayview Village), Ontario M2K3C2",C10440704,749.5,Bayview Village,2.0,2.0,Apartment,Central air conditioning,Forced air (Natural gas),43.7652817,-79.3827745,,,0,0,0,0,0,0,1,0,0,0,1,0,0,0,0,0,0,0,0,0,0
129,958000.0,"1707 - 909 BAY STREETToronto (Bay Street Corridor), Ontario M5S3G2",C10440685,1099.5,Bay Street Corridor,2.0,2.0,Apartment,Central air conditioning,Forced air (Natural gas),43.6636895,-79.3866053,,,0,0,0,1,1,1,1,0,0,0,1,0,0,0,0,1,0,0,0,0,0
130,6295000.0,"12A - 22 ST THOMAS STREETToronto (Bay Street Corridor), Ontario M5S3E7",C10440682,3874.5,Bay Street Corridor,3.0,4.5,Apartment,Central air conditioning,Forced air (Electric),43.6688556,-79.3909795,,,0,0,1,1,1,0,0,0,0,1,1,0,0,0,0,0,0,0,0,0,0
131,550000.0,"510 - 475 THE WEST MALLToronto (Etobicoke West Mall), Ontario M9C4Z3",W10440641,1099.5,Etobicoke West Mall,2.0,1.0,,Central air conditioning,Forced air (Natural gas),43.6477854,-79.5666294,,,0,0,0,0,0,0,1,0,0,1,0,0,0,0,0,0,1,0,0,0,0
132,749999.0,"7 - 431 MILITARY TRAILToronto (Morningside), Ontario M1E4E8",E10440594,1299.5,Morningside,4.0,2.0,Row / Townhouse,Central air conditioning,Forced air (Natural gas),43.7881509,-79.2077441,,,0,0,0,0,0,1,0,0,0,0,0,0,0,0,0,0,0,0,0,0,0
133,599000.0,"312 - 12 BONNYCASTLE STREETToronto (Waterfront Communities), Ontario M5A0C8",C10440621,549.5,Waterfront Communities C8,1.0,1.0,Apartment,Central air conditioning,Forced air (Natural gas),43.6460368,-79.3649192,,,0,0,0,0,0,0,1,0,0,0,1,0,0,0,0,1,0,0,0,0,0
134,569000.0,"502 - 549 KING STREET EToronto (Moss Park), Ontario M5A1M4",C10440600,549.5,Moss Park,1.0,1.0,Apartment,Central air conditioning,Forced air (Natural gas),43.6555245,-79.3580429,,,0,0,0,0,0,0,1,0,0,0,0,0,0,0,0,1,1,0,0,0,0
135,519900.0,"318 - 1410 DUPONT STREETToronto (Dovercourt-Wallace Emerson-Junction), Ontario M6H0B6",W10440580,649.5,Dovercourt-Wallace Emerson-Junction,2.0,1.0,Apartment,Central air conditioning,Forced air (Natural gas),43.66710279999999,-79.4474491,,,0,0,0,1,1,1,0,0,0,0,1,0,0,0,0,0,0,0,0,0,0
136,668000.0,"224 - 1787 ST CLAIR AVENUE WToronto (Weston-Pellam Park), Ontario M2N0B7",W10440490,649.5,Weston-Pellam Park,2.0,1.0,Apartment,Central air conditioning,,43.6735145,-79.46209689999999,,,0,0,0,0,0,0,1,0,0,0,0,0,0,0,0,0,1,0,0,0,0
137,675000.0,"206 - 165 CHEROKEE BOULEVARDToronto (Pleasant View), Ontario M2J4T7",C10440573,1099.5,Pleasant View,4.0,2.0,Row / Townhouse,Central air conditioning,Forced air (Natural gas),43.79248459999999,-79.3358621,,,0,0,1,0,0,0,1,0,1,1,0,0,0,0,0,0,1,0,0,0,0
138,563800.0,"3107 - 70 QUEENS WHARF ROADToronto (Waterfront Communities), Ontario M5V0J2",C10440544,549.5,Waterfront Communities C1,1.0,1.0,Apartment,Central air conditioning,Forced air (Natural gas),43.6385212,-79.39945449999999,,,0,0,0,0,0,0,1,0,0,0,0,0,0,0,0,0,0,0,0,0,0
139,1449000.0,"316/317 - 225 MERTON STREETToronto (Mount Pleasant West), Ontario M4S3H1",C10440522,1899.5,Mount Pleasant West,3.0,2.0,Apartment,Central air conditioning,Forced air (Natural gas),43.6971818,-79.3896853,,,0,0,0,1,1,0,1,0,1,0,1,0,0,0,0,0,0,0,0,0,0
140,558000.0,"1407 - 10 NORTHTOWN WAYToronto (Willowdale East), Ontario M2N7L4",C10440523,649.5,Willowdale East,1.0,1.0,Apartment,Central air conditioning,Forced air (Natural gas),43.7759274,-79.4132893,,,0,0,1,0,1,1,1,0,0,0,1,0,0,0,0,1,0,0,0,0,0
141,849000.0,"305 - 15 STAFFORD STREETToronto (Niagara), Ontario M5V3X6",C10440521,849.5,Niagara,2.0,1.0,Apartment,Central air conditioning,Heat Pump (Natural gas),43.6415309,-79.41026029999999,,,0,0,0,1,0,1,1,0,1,0,1,0,0,0,0,0,1,0,0,0,0
142,599000.0,"1709 - 1 LEE CENTRE DRIVEToronto (Woburn), Ontario M1H3J2",E10440477,949.5,Woburn,2.0,2.0,Apartment,Central air conditioning,Forced air (Natural gas),43.7813124,-79.2452782,,,0,0,0,0,0,0,0,0,0,0,1,0,0,0,0,0,0,0,0,0,0
143,849900.0,"2009 - 8 LEE CENTRE DRIVEToronto (Woburn), Ontario M1H3H8",E10440473,1499.5,Woburn,4.0,3.0,Apartment,Central air conditioning,Forced air (Natural gas),43.7808936,-79.2478199,,,0,0,1,1,1,0,0,0,1,0,1,0,0,0,0,0,0,0,0,0,0
144,1549000.0,"4806 - 21 ICEBOAT TERRACEToronto (Waterfront Communities), Ontario M5V4A9",C10440496,1499.5,Waterfront Communities C1,3.0,3.5,Apartment,Central air conditioning,Forced air (Natural gas),43.64049809999999,-79.3974313,,,0,0,1,1,1,1,1,0,1,0,1,0,0,0,0,1,1,0,0,0,0
145,699888.0,"509 - 30 GRAND TRUNK CRESCENTToronto (Waterfront Communities), Ontario M5J3A4",C10440498,849.5,Waterfront Communities C1,2.0,1.0,Apartment,Central air conditioning,Forced air (Natural gas),43.6422693,-79.3828647,,,0,0,0,0,0,0,1,0,0,0,1,0,0,0,0,0,1,0,0,0,0
146,829000.0,"601 - 2010 ISLINGTON AVENUEToronto (Kingsview Village-The Westway), Ontario M9P3S8",W10439222,1899.5,Kingsview Village-The Westway,3.0,2.0,Apartment,Central air conditioning,Forced air (Natural gas),43.6982931,-79.5478787,,,0,0,1,0,1,0,1,0,0,0,1,0,0,0,0,0,0,0,0,0,0
147,734100.0,"836 - 5 MABELLE AVENUEToronto (Islington-City Centre West), Ontario M9A0C8",W10434199,849.5,Islington-City Centre West,2.0,2.0,Apartment,Central air conditioning,Forced air (Natural gas),43.6466642,-79.5255121,,,0,0,1,1,0,1,1,0,0,0,0,0,0,0,0,1,1,0,0,0,0
148,884000.0,"6 - 431 MILL ROADToronto (Eringate-Centennial-West Deane), Ontario M9C1Z2",W10434146,1499.5,Eringate-Centennial-West Deane,5.0,4.0,Row / Townhouse,Central air conditioning,Forced air (Natural gas),43.6454645,-79.58938239999999,,,0,0,0,0,0,1,0,0,0,0,0,0,0,0,0,0,0,0,0,0,0
149,749900.0,"1207 - 15 ZORRA STREETToronto (Islington-City Centre West), Ontario M8Z0C1",W10434121,849.5,Islington-City Centre West,3.0,2.0,Apartment,Central air conditioning,Forced air (Natural gas),43.6212404,-79.5213634,,,0,0,1,1,1,1,1,0,0,0,1,0,0,0,0,1,1,0,0,0,0
150,480000.0,"1201 - 3121 SHEPPARD AVENUE EToronto (Tam O'Shanter-Sullivan), Ontario M1T0B6",E10440464,549.5,Tam O'Shanter-Sullivan,1.0,1.0,Apartment,Central air conditioning,Forced air (Electric),43.7763565,-79.3171447,,,0,0,0,1,1,0,1,0,1,0,1,0,0,0,0,0,0,0,0,0,0
151,475000.0,"1015 - 100 WINGARDEN COURTToronto (Malvern), Ontario M1B2P4",E10438778,1099.5,Malvern,2.0,2.5,Apartment,,Baseboard heaters (Electric),43.8115126,-79.2260204,,,0,0,0,0,0,0,1,0,0,0,0,0,0,0,0,0,0,0,0,0,0
152,869000.0,"11 - 32 CURZON STREETToronto (South Riverdale), Ontario M4M3B4",E10434189,1099.5,South Riverdale,3.0,1.0,Row / Townhouse,,Baseboard heaters (Electric),43.6640697,-79.3321982,,,0,0,0,0,0,0,0,0,0,0,0,0,0,0,0,0,1,0,0,0,0
153,489000.0,"2007 - 1 MASSEY SQUAREToronto (Crescent Town), Ontario M4C5L4",E10434117,1099.5,Crescent Town,3.0,1.0,Apartment,,Radiant heat (Electric),43.696526,-79.294243,,,0,0,1,1,0,0,1,0,1,1,0,0,0,0,0,0,0,0,0,0,0
154,549000.0,"1705 - 260 SENECA HILL DRIVEToronto (Don Valley Village), Ontario M2J4S6",C10434194,949.5,Don Valley Village,2.0,1.0,Apartment,Central air conditioning,Forced air (Natural gas),43.7900409,-79.357456,,,0,0,1,0,0,1,1,0,1,0,0,0,0,0,0,0,1,0,0,0,0
155,650000.0,"1728 - 111 ST CLAIR AVENUE WToronto (Yonge-St. Clair), Ontario M4V1N5",C10434152,649.5,Yonge-St. Clair,2.0,1.0,Apartment,Central air conditioning,Forced air (Natural gas),43.6867098,-79.3992581,,,0,0,0,0,0,0,0,0,0,0,1,0,0,0,0,0,0,0,0,0,0
156,879000.0,"2608 - 15 HOLMES AVENUEToronto (Willowdale East), Ontario M2N0L4",C10434156,949.5,Willowdale East,2.0,2.0,Apartment,Central air conditioning,Forced air (Electric),43.777866,-79.41419429999999,,,0,0,0,1,1,0,1,0,0,0,1,0,0,0,0,0,0,0,0,0,0
157,908888.0,"1008 - 5 KENNETH AVENUEToronto (Willowdale East), Ontario M2N6M7",C10434132,1499.5,Willowdale East,3.0,2.0,Apartment,Central air conditioning,Forced air (Natural gas),43.7641899,-79.4049268,,,0,0,1,1,1,1,1,0,0,0,1,0,0,0,0,0,0,0,0,0,0
158,499799.0,"1109 - 1 MASSEY SQUAREToronto (Crescent Town), Ontario M4C5L4",E10434061,949.5,Crescent Town,2.0,1.0,Apartment,Wall unit,Radiant heat (Electric),43.696526,-79.294243,,,0,0,1,0,0,1,1,0,0,1,1,0,0,0,0,0,0,0,0,0,0
159,645000.0,"404 - 1733 QUEEN STREET EToronto (The Beaches), Ontario M4L6S9",E10434048,649.5,The Beaches,2.0,1.0,Apartment,Central air conditioning,Forced air (Natural gas),43.6672988,-79.31090549999999,,,0,0,0,1,0,1,1,0,0,0,1,0,0,0,0,0,1,0,0,0,0
160,549900.0,"908 - 1410 DUPONT STREETToronto (Dovercourt-Wallace Emerson-Junction), Ontario M6H2B1",W10433972,549.5,Dovercourt-Wallace Emerson-Junction,1.0,1.0,Apartment,Central air conditioning,Forced air (Natural gas),43.66710279999999,-79.4474491,,,0,0,0,1,1,1,1,0,0,0,1,0,0,0,0,0,1,0,0,0,0
161,420000.0,"221 - 5225 FINCH AVENUE EToronto (Agincourt North), Ontario M1S5W8",E10434038,649.5,Agincourt North,1.0,1.0,Apartment,Central air conditioning,Forced air (Natural gas),43.8099697,-79.2550881,,,0,0,0,0,0,0,1,0,0,0,0,0,0,0,0,1,0,0,0,0,0
162,789000.0,"26 HEALE AVENUEToronto (Birchcliffe-Cliffside), Ontario M1N3X7",E10433957,900.0,Birchcliffe-Cliffside,3.0,2.0,Semi-detached,,Forced air (Natural gas),43.71220520000001,-79.25015739999999,23.166666666666668,"125 ft ,1 in",0,0,0,0,0,0,0,0,0,0,0,0,0,0,0,0,0,0,0,0,0
163,789900.0,"3 - 740 KENNEDY ROADToronto (Ionview), Ontario M1K2C5",E10433935,1300.0,Ionview,3.0,2.0,Row / Townhouse,Central air conditioning,Forced air (Natural gas),43.72997489999999,-79.2694879,16.583333333333332,"80 ft ,3 in",0,0,0,0,0,0,0,0,0,0,0,0,0,0,0,0,0,0,0,0,0
164,509900.0,"PH05 - 5580 SHEPPARD AVENUE EToronto (Malvern), Ontario M1B2L3",E10433936,1099.5,Malvern,3.0,1.0,Apartment,Window air conditioner,Baseboard heaters (Electric),43.7945926,-79.2378274,,,0,0,0,1,0,1,1,0,0,0,0,0,0,0,0,0,0,0,0,0,0
165,749000.0,"1910 - 35 BALMUTO STREETToronto (Bay Street Corridor), Ontario M4Y0A3",C10434039,749.5,Bay Street Corridor,2.0,1.0,Apartment,Central air conditioning,Forced air (Natural gas),43.6692215,-79.3873579,,,0,0,0,1,1,1,1,0,0,0,0,0,0,0,0,0,1,0,0,0,0
166,749000.0,"805 - 86 GLOUCESTER STREETToronto (Church-Yonge Corridor), Ontario M4Y2S2",C10434027,949.5,Church-Yonge Corridor,2.0,2.0,Apartment,Central air conditioning,Forced air (Natural gas),43.6677624,-79.38091659999999,,,0,0,1,1,0,1,1,0,0,0,0,0,0,0,0,0,0,0,0,0,0
167,549000.0,"1506W - 36 LISGAR STREETToronto (Little Portugal), Ontario M6J3G2",C10434017,549.5,Little Portugal,2.0,2.0,Apartment,Central air conditioning,,43.6420208,-79.4233917,,,0,0,0,1,1,0,1,0,0,0,1,0,0,0,0,0,0,0,0,0,0
168,998000.0,"5 - 74 UPPER CANADA DRIVEToronto (St. Andrew-Windfields), Ontario M2P2A3",C10433988,2124.5,St. Andrew-Windfields,5.0,4.5,Row / Townhouse,Central air conditioning,Forced air (Natural gas),43.7541297,-79.4051872,,,0,0,0,0,0,1,0,0,0,0,0,0,0,0,0,1,1,0,0,0,0
169,645000.0,"1733 QUEEN Street E Unit# 404Toronto, Ontario M4L6S9",40678188,615.0,,2.0,1.0,Apartment,Central air conditioning,"Forced air, (Natural gas)",43.6672988,-79.31090549999999,,,0,0,0,1,0,0,1,0,0,0,0,0,0,0,0,0,0,0,0,0,0
170,940000.0,"59 FAIRFIELD AVENUEToronto (Long Branch), Ontario M8W1R6",W10433910,1300.0,Long Branch,3.0,2.0,Detached,Central air conditioning,Forced air (Natural gas),43.5967273,-79.5268335,32.666666666666664,113 ft,0,0,0,0,0,0,0,0,0,0,0,0,0,0,0,1,0,0,0,0,0
171,690000.0,"714 - 109 FRONT STREET EToronto (Waterfront Communities), Ontario M5A4P7",C10433926,749.5,Waterfront Communities C8,2.0,2.0,Apartment,Central air conditioning,Forced air (Natural gas),43.64526900000001,-79.3825288,,,0,0,0,0,1,1,0,0,0,1,1,0,0,0,0,0,0,0,0,0,0
172,549900.0,"1510 - 5 PARKWAY FOREST DRIVEToronto (Henry Farm), Ontario M2J1L2",C10433929,1099.5,Henry Farm,4.0,1.0,Apartment,Window air conditioner,Baseboard heaters (Natural gas),43.7686886,-79.3458773,,,0,0,0,0,0,0,1,0,0,0,0,0,0,0,0,0,0,0,0,0,0
173,688000.0,"610 - 935 SHEPPARD AVENUE WToronto (Clanton Park), Ontario M3H2T7",C10433894,949.5,Clanton Park,3.0,2.0,Apartment,Central air conditioning,Forced air (Natural gas),43.75105569999999,-79.4583907,,,0,0,0,0,0,0,0,0,0,0,1,0,0,0,0,0,0,0,0,0,0
174,809900.0,"3202 - 2 ANNDALE DRIVEToronto (Willowdale East), Ontario M2N0G5",C10433897,849.5,Willowdale East,2.0,2.0,Apartment,Central air conditioning,Forced air (Natural gas),43.7607405,-79.4084851,,,0,0,0,0,0,0,1,0,0,0,0,0,0,0,0,0,0,0,0,0,0
175,729000.0,"1910 - 10 BLOORVIEW PLACEToronto (Don Valley Village), Ontario M2J0B1",C10433918,749.5,Don Valley Village,2.0,1.0,Apartment,Central air conditioning,Forced air (Natural gas),43.7737596,-79.3592974,,,0,0,0,0,0,0,1,0,0,0,1,0,0,0,0,0,1,0,0,0,0
176,808000.0,"1203 - 10 KENNETH AVENUEToronto (Willowdale East), Ontario M2N6K6",C10433881,1299.5,Willowdale East,3.0,2.0,Apartment,Central air conditioning,Forced air (Natural gas),43.7639664,-79.40577139999999,,,0,0,1,1,1,0,0,0,1,1,1,0,0,0,0,0,0,0,0,0,0
177,1099999.0,"1504 - 2045 LAKE SHORE BOULEVARD WToronto (Mimico), Ontario M8V2Z6",W10433864,1899.5,Mimico,2.0,3.5,Apartment,Central air conditioning,Radiant heat (Natural gas),43.6313539,-79.4746095,,,0,0,1,1,1,0,0,0,0,0,1,0,0,0,0,0,1,0,0,0,0
178,874900.0,"1401 - 11 ST. JOSEPH STREETToronto (Bay Street Corridor), Ontario M4Y3G4",C10433917,949.5,Bay Street Corridor,2.0,2.5,Apartment,Central air conditioning,Forced air (Natural gas),43.6656128,-79.386063,,,0,0,0,1,1,1,0,0,1,0,0,0,0,0,0,1,1,0,0,0,0
179,628000.0,"1709 - 275 BAMBURGH CIRCLEToronto (Steeles), Ontario M1W3X4",E10433763,1099.5,Steeles,3.0,2.0,Apartment,Central air conditioning,,43.8135945,-79.32323099999999,,,0,0,0,0,1,0,1,0,1,0,1,0,0,0,0,0,0,0,0,0,0
180,1349000.0,"503 - 33 HARBOUR SQUAREToronto (Waterfront Communities), Ontario M5J2G2",C10433859,1299.5,Waterfront Communities C1,2.0,2.0,Apartment,Central air conditioning,Other (Natural gas),43.63993749999999,-79.3771812,,,0,0,1,0,1,1,1,0,0,0,0,0,0,0,0,1,0,0,0,0,0
181,749990.0,"507 - 15 MERCHANTS' WHARFToronto (Waterfront Communities), Ontario M5A0N8",C10433825,649.5,Waterfront Communities C8,2.0,1.0,Apartment,Central air conditioning,Forced air (Natural gas),43.6452569,-79.3642909,,,0,0,0,0,1,0,1,0,1,0,0,0,0,0,0,1,0,0,0,0,0
182,499000.0,"216 - 26 OLIVE AVENUEToronto (Willowdale East), Ontario M2N7G7",C10433832,549.5,Willowdale East,0.0,1.0,Apartment,Central air conditioning,Forced air (Natural gas),43.7793207,-79.4137118,,,0,0,0,0,0,0,0,0,0,0,1,0,0,0,0,0,1,0,0,0,0
183,1249999.0,"24A MASSEY STREETToronto (Niagara), Ontario M6J3T7",C10433819,1699.5,Niagara,3.0,3.5,Row / Townhouse,Central air conditioning,Forced air (Natural gas),43.6427314,-79.4132034,,,0,0,0,0,0,0,1,0,0,0,1,0,0,0,0,0,0,0,0,0,0
184,2295000.0,"147B FARNHAM AVENUEToronto (Yonge-St. Clair), Ontario M4V1H7",C10433811,8400.0,Yonge-St. Clair,0.0,1.0,,,Radiant heat,43.6834505,-79.3993405,50.0,168 ft,0,0,0,0,0,0,0,0,0,0,0,0,0,0,0,0,0,0,0,0,0
185,4588000.0,"147 FARNHAM AVENUEToronto (Yonge-St. Clair), Ontario M4V1H7",C10433812,8400.0,Yonge-St. Clair,0.0,1.0,,,Radiant heat,43.6834505,-79.3993405,50.0,168 ft,0,0,0,0,0,0,0,0,0,0,0,0,0,0,0,0,0,0,0,0,0
186,689000.0,"714 - 300 FRONT STREET WToronto (Waterfront Communities), Ontario M5V0E9",C10433805,649.5,Waterfront Communities C1,1.0,1.0,Apartment,Central air conditioning,Forced air (Natural gas),43.6441277,-79.38940579999999,,,0,0,1,1,1,0,1,0,0,0,0,0,0,0,0,0,1,0,0,0,0
187,999000.0,"94 BARTLEY DRIVEToronto (Victoria Village), Ontario M4A0A9",C10433767,1750.0,Victoria Village,5.0,4.5,Row / Townhouse,Central air conditioning,Forced air (Natural gas),43.7223467,-79.30752989999999,,,0,0,0,0,0,0,0,0,0,0,0,0,0,0,0,0,0,0,0,0,0
188,744000.0,"2101 - 50 LOMBARD STREETToronto (Church-Yonge Corridor), Ontario M5C2X4",C10433752,1099.5,Church-Yonge Corridor,2.0,2.0,Apartment,Central air conditioning,Forced air (Natural gas),43.6518811,-79.3759898,,,0,0,0,1,1,1,0,0,0,1,1,0,0,0,0,0,0,0,0,0,0
189,499900.0,"1110 - 1600 KEELE STREETToronto (Keelesdale-Eglinton West), Ontario M6N5J1",W10433727,649.5,Keelesdale-Eglinton West,2.0,1.0,Apartment,Central air conditioning,Forced air (Natural gas),43.6816171,-79.4718826,,,0,0,0,0,0,0,1,0,0,0,1,0,0,0,0,0,0,0,0,0,0
190,3650000.0,"17 HIGH PARK GARDENSToronto (High Park-Swansea), Ontario M6R1S8",W10433707,4250.0,High Park-Swansea,5.0,5.5,Detached,,Hot water radiator heat (Natural gas),43.64888699999999,-79.45610239999999,60.0,113 ft,0,0,0,0,0,0,0,0,0,0,0,0,0,0,0,0,0,0,0,0,0
191,599900.0,"1312 - 330 MCCOWAN ROADToronto (Eglinton East), Ontario M1J3N3",E10433697,1299.5,Eglinton East,4.0,2.0,Apartment,"Central air conditioning, Ventilation system",Forced air (Electric),43.737572,-79.2384628,,,0,0,1,1,1,1,0,0,0,1,1,0,0,0,0,1,0,0,0,0,0
192,638000.0,"1915 - 4725 SHEPPARD AVENUE EToronto (Agincourt South-Malvern West), Ontario M1S5B2",E10433694,1299.5,Agincourt South-Malvern West,2.0,2.0,Apartment,Central air conditioning,Forced air (Electric),43.7900849,-79.25455509999999,,,0,0,1,0,1,0,1,0,1,0,0,0,0,0,0,0,1,0,0,0,0
193,4769900.0,"5B - 2010 BATHURST STREETToronto (Humewood-Cedarvale), Ontario M5P3L1",C10433726,2874.5,Humewood-Cedarvale,3.0,4.5,Apartment,Central air conditioning,,43.7002606,-79.4255755,,,0,0,0,0,1,1,1,0,0,0,1,0,0,0,0,0,0,0,0,0,0
194,628000.0,"415 - 118 MERCHANTS' WHARFToronto (Waterfront Communities), Ontario M5A0L3",C10433734,649.5,Waterfront Communities C8,2.0,1.0,Apartment,Central air conditioning,,43.6454925,-79.3613428,,,0,0,0,1,1,1,1,0,0,0,1,0,0,0,0,0,1,0,0,0,0
195,669000.0,"1306 - 83 REDPATH AVENUEToronto (Mount Pleasant West), Ontario M4S0A2",C10433725,649.5,Mount Pleasant West,2.0,1.0,Apartment,Central air conditioning,Forced air (Natural gas),43.70650699999999,-79.3918961,,,0,0,0,1,1,0,1,0,0,0,1,0,0,0,0,0,1,0,0,0,0
196,1255000.0,"50 KING HIGH AVENUEToronto (Clanton Park), Ontario M3H3A7",C10433691,1300.0,Clanton Park,5.0,3.5,Detached,Central air conditioning,Forced air (Natural gas),43.7384757,-79.4439749,42.583333333333336,150 ft,0,0,0,0,0,0,0,0,0,0,0,0,0,0,0,0,0,0,0,0,0
197,557900.0,"213 - 1200 DON MILLS ROADToronto (Banbury-Don Mills), Ontario M3B3N8",C10433729,749.5,Banbury-Don Mills,1.0,1.0,Apartment,Central air conditioning,Forced air (Natural gas),43.7395181,-79.3450216,,,0,0,0,0,0,0,1,0,0,0,1,0,0,0,0,0,1,0,0,0,0
198,669000.0,"83 REDPATH Avenue Unit# 1306Toronto, Ontario M4S0A2",40679284,659.0,,2.0,1.0,Apartment,Central air conditioning,Forced air,43.70650699999999,-79.3918961,,,0,0,0,1,0,0,1,0,0,0,0,0,0,0,0,0,0,0,0,0,0
199,455000.0,"1 - 129 ISAAC DEVINS BOULEVARDToronto (Humberlea-Pelmo Park), Ontario M9M0C4",W10433656,649.5,Humberlea-Pelmo Park W5,1.0,1.0,Row / Townhouse,Central air conditioning,Forced air (Natural gas),43.731451,-79.5318542,,,0,0,0,0,0,1,0,0,0,0,1,0,0,0,0,1,0,0,0,0,0
200,650000.0,"1207 - 7 MABELLE AVENUEToronto (Islington-City Centre West), Ontario M9A0C9",W10433588,749.5,Islington-City Centre West,3.0,2.0,Apartment,Central air conditioning,,43.6464587,-79.52610179999999,,,0,0,1,1,1,0,1,0,1,0,1,0,0,0,0,1,1,0,0,0,0
201,1589000.0,"61 FULBERT CRESCENTToronto (Agincourt South-Malvern West), Ontario M1S1C5",E10433643,2750.0,Agincourt South-Malvern West,6.0,4.5,Detached,Central air conditioning,Forced air (Natural gas),43.790333,-79.28706489999999,42.5,"110 ft ,3 in",0,0,0,0,0,0,0,0,0,0,0,0,0,0,0,0,0,0,0,0,0
202,575000.0,"417 - 8 OLYMPIC GARDEN DRIVEToronto (Newtonbrook East), Ontario M2M0B9",C10433657,549.5,Newtonbrook East,2.0,1.0,Apartment,Central air conditioning,Forced air (Electric),43.7850291,-79.41599169999999,,,0,0,0,0,1,1,1,0,0,0,0,0,0,0,0,0,0,0,0,0,0
203,579000.0,"2305 - 181 WYNFORD DRIVEToronto (Banbury-Don Mills), Ontario M3C0C6",C10433624,649.5,Banbury-Don Mills,2.0,1.0,Apartment,Central air conditioning,Forced air (Electric),43.7248836,-79.3285334,,,0,0,0,1,1,0,1,0,0,0,0,0,0,0,0,0,0,0,0,0,0
204,860000.0,"508 - 18 YORKVILLE AVENUEToronto (Annex), Ontario M4W3Y8",C10433639,749.5,Annex,2.0,2.0,Apartment,Central air conditioning,Forced air (Natural gas),43.6720014,-79.3879279,,,0,0,0,0,1,0,1,0,1,1,1,0,0,0,0,0,0,0,0,0,0
205,4188000.0,"PH101 - 199 RICHMOND STREET WToronto (Waterfront Communities), Ontario M5V0H4",C10433594,3374.5,Waterfront Communities C1,4.0,3.5,Apartment,Central air conditioning,Heat Pump (Natural gas),43.6495729,-79.3880901,,,0,0,0,1,1,0,1,0,0,0,1,0,0,0,0,0,0,0,0,0,0
206,896500.0,"1806 - 2020 BATHURST STREETToronto (Humewood-Cedarvale), Ontario M5P0A6",C10433596,849.5,Humewood-Cedarvale,3.0,2.0,Apartment,Central air conditioning,Forced air (Natural gas),43.70078609999999,-79.4256293,,,0,0,0,1,1,0,1,0,0,0,1,0,0,0,0,0,0,0,0,0,0
207,599990.0,"419 - 30 TRETTI WAYToronto (Bathurst Manor), Ontario M3H0E3",C10433590,549.5,Bathurst Manor,2.0,2.0,Apartment,Central air conditioning,Forced air (Electric),43.7329753,-79.4486331,,,0,0,0,1,0,0,0,0,1,0,1,0,0,0,0,0,0,0,0,0,0
208,672000.0,"1206 - 225 SACKVILLE STREETToronto (Regent Park), Ontario M5A0B9",C10433591,649.5,Regent Park,2.0,2.0,Apartment,Central air conditioning,,43.6598284,-79.3627143,,,0,0,0,1,1,1,1,0,0,0,1,0,0,0,0,1,0,0,0,0,0
209,1488000.0,"1206 - 62 WELLESLEY STREET WToronto (Bay Street Corridor), Ontario M5S2X3",C10433586,1899.5,Bay Street Corridor,5.0,2.0,Apartment,Central air conditioning,Forced air (Natural gas),43.6645109,-79.3881365,,,0,0,0,0,1,1,0,0,0,0,0,0,0,0,0,0,0,0,0,0,0
210,599888.0,"403 - 3 HICKORY TREE ROADToronto (Weston), Ontario M9N3W5",W10433605,1099.5,Weston,2.0,2.0,Apartment,Central air conditioning,Forced air (Natural gas),43.6983462,-79.5139882,,,0,0,0,0,0,0,0,0,0,0,0,0,0,0,0,1,1,0,0,0,0
211,999000.0,"15 FARNSWORTH DRIVEToronto (Humberlea-Pelmo Park), Ontario M9N2Z5",W10433571,1300.0,Humberlea-Pelmo Park W4,4.0,3.5,Detached,,Forced air (Natural gas),43.7094335,-79.51359839999999,50.0,125 ft,0,0,0,0,0,0,0,0,0,0,0,0,0,0,0,0,0,0,0,0,0
212,565000.0,"1611 - 99 FOXBAR ROAD SToronto (Yonge-St. Clair), Ontario M4V0B2",C10433572,549.5,Yonge-St. Clair,1.0,1.0,Apartment,Central air conditioning,Forced air (Natural gas),43.68651879999999,-79.40019629999999,,,0,0,1,1,1,0,1,0,0,0,1,0,0,0,0,0,0,0,0,0,0
213,538800.0,"301 - 740 EGLINTON AVENUE WToronto (Forest Hill North), Ontario M5N1C4",C10433566,849.5,Forest Hill North,2.0,1.0,Apartment,,Radiant heat (Natural gas),43.70208650000001,-79.421808,,,0,0,0,0,0,0,1,0,0,0,1,0,0,0,0,0,0,0,0,0,0
214,689900.0,"328 - 25 COLE STREETToronto (Regent Park), Ontario M5A4M3",C10433565,749.5,Regent Park,2.0,2.0,Apartment,Central air conditioning,Forced air (Natural gas),43.6600547,-79.3649782,,,0,0,0,1,1,1,0,0,0,0,0,0,0,0,0,1,1,0,0,0,0
215,2699000.0,"53 PARKHURST BOULEVARD EToronto (Leaside), Ontario M4G2C8",C10433564,2250.0,Leaside,4.0,4.5,Detached,Central air conditioning,Forced air (Natural gas),43.7087672,-79.3726396,30.0,120 ft,0,0,0,0,0,0,0,0,0,0,0,0,0,0,0,0,0,0,0,0,0
216,697000.0,"1612 - 7 KING STREET EToronto (Church-Yonge Corridor), Ontario M5C3C5",C10433562,749.5,Church-Yonge Corridor,2.0,2.0,Apartment,Central air conditioning,Forced air (Natural gas),43.6492492,-79.3770373,,,0,0,1,1,1,0,0,0,0,0,1,0,0,0,0,0,1,0,0,0,0
217,519900.0,"1109 - 3 MICHAEL POWER PLACEToronto (Islington-City Centre West), Ontario M9A0A2",W10433519,549.5,Islington-City Centre West,1.0,1.0,Apartment,Central air conditioning,Forced air (Natural gas),43.6440199,-79.5288851,,,0,0,1,1,1,1,1,0,0,1,1,0,0,0,0,1,1,0,0,0,0
218,1119000.0,"26 BIGHAM CRESCENTToronto (Eringate-Centennial-West Deane), Ontario M9C5C6",W10433517,1300.0,Eringate-Centennial-West Deane,4.0,3.0,Semi-detached,Central air conditioning,Forced air (Natural gas),43.6624524,-79.5865903,26.833333333333332,"90 ft ,2 in",0,0,0,0,0,0,0,0,0,0,0,0,0,0,0,0,0,0,0,0,0
219,689000.0,"102 - 60 BERWICK AVENUEToronto (Yonge-Eglinton), Ontario M5P0A3",C10433543,649.5,Yonge-Eglinton,2.0,1.0,Apartment,Central air conditioning,Forced air (Natural gas),43.7040017,-79.3996943,,,0,0,0,1,1,1,0,0,0,0,1,0,0,0,0,0,0,0,0,0,0
220,9600000.0,"77 COLDSTREAM AVENUEToronto (Lawrence Park South), Ontario M5N1X7",C10433534,4250.0,Lawrence Park South,6.0,7.5,Detached,Central air conditioning,Forced air (Natural gas),43.7173149,-79.4170455,326.0833333333333,"137 ft ,7 in",0,0,1,0,0,0,0,0,0,0,0,0,0,0,0,0,0,0,0,0,0
221,975000.0,"113 - 993 QUEEN STREET WToronto (Niagara), Ontario M6J1H2",C10433522,849.5,Niagara,1.0,1.0,Apartment,Central air conditioning,Forced air (Natural gas),43.6446488,-79.4156165,,,0,0,0,0,1,0,0,0,1,0,0,0,0,0,0,0,0,0,0,0,0
222,975000.0,"993 QUEEN Street W Unit# 113Toronto, Ontario M6J1H2",40679179,822.0,,1.0,1.0,Apartment,Central air conditioning,"Forced air, (Natural gas)",43.6446488,-79.4156165,,,0,0,0,1,0,0,0,0,0,0,0,0,0,0,0,0,0,0,0,0,0
223,499000.0,"3603 - 3 MASSEY SQUAREToronto (Crescent Town), Ontario M4C5L5",E10433494,1099.5,Crescent Town,3.0,1.0,Apartment,,Radiant heat (Electric),43.696799,-79.2934126,,,0,0,1,1,1,1,1,0,0,0,0,0,0,0,0,1,0,0,0,0,0
224,888000.0,"802 - 2191 YONGE STREETToronto (Mount Pleasant West), Ontario M4S3H8",C10433468,1099.5,Mount Pleasant West,3.0,2.0,Apartment,Central air conditioning,Forced air (Natural gas),43.7056569,-79.3974547,,,0,0,0,0,0,0,1,0,0,0,1,0,0,0,0,0,1,0,0,0,0
225,499000.0,"2307 - 14 YORK STREETToronto (Waterfront Communities), Ontario M5J2Z2",C10433461,549.5,Waterfront Communities C1,2.0,1.0,Apartment,Central air conditioning,Forced air (Natural gas),43.64195290000001,-79.38201629999999,,,0,0,1,1,1,0,1,0,1,0,1,0,0,0,0,1,0,0,0,0,0
226,1799000.0,"44 ENDEAN AVENUEToronto (South Riverdale), Ontario M4M1W6",E10433426,1750.0,South Riverdale,4.0,4.5,Detached,Central air conditioning,Forced air (Natural gas),43.6691453,-79.3334225,20.0,"92 ft ,6 in",0,0,0,0,0,0,0,0,0,0,0,0,0,0,0,1,0,0,0,0,0
227,598000.0,"512 - 352 FRONT STREET WToronto (Waterfront Communities), Ontario M5V1B5",C10433432,649.5,Waterfront Communities C1,1.0,1.0,Apartment,Central air conditioning,,43.6433534,-79.39245149999999,,,0,0,0,1,1,0,1,0,0,1,0,0,0,0,0,1,0,0,0,0,0
228,519999.0,"202 - 130 RUSHOLME ROADToronto (Dufferin Grove), Ontario M6H2Y7",C10433447,549.5,Dufferin Grove,1.0,1.0,Apartment,Central air conditioning,Forced air (Natural gas),43.6533702,-79.4284509,,,0,0,0,1,0,1,1,0,0,0,0,0,0,0,0,0,1,0,0,0,0
229,699000.0,"1711 - 15 GRENVILLE STREETToronto (Bay Street Corridor), Ontario M4Y0B9",C10433419,549.5,Bay Street Corridor,2.0,1.0,Apartment,Central air conditioning,Forced air (Natural gas),43.6619195,-79.3843505,,,0,0,0,1,1,0,1,0,1,0,1,0,0,0,0,1,1,0,0,0,0
230,688000.0,"PH203 - 75 CANTERBURY PLACEToronto (Willowdale West), Ontario M2N2N1",C10433423,749.5,Willowdale West,2.0,2.0,Apartment,Central air conditioning,Heat Pump,43.774199,-79.4152874,,,0,0,0,1,1,1,1,0,0,1,0,0,0,0,0,0,1,0,0,0,0
231,1039000.0,"3501 - 85 QUEENS WHARF ROADToronto (Waterfront Communities), Ontario M5V0J9",C10433417,1099.5,Waterfront Communities C1,3.0,2.0,Apartment,Central air conditioning,Forced air (Natural gas),43.6388838,-79.3986923,,,0,0,1,1,1,1,1,0,0,0,0,0,0,0,0,0,0,0,0,0,0
232,790000.0,"401 - 1 RIPLEY AVENUE SToronto (High Park-Swansea), Ontario M6S4Z6",W10433410,1099.5,High Park-Swansea,3.0,2.0,Apartment,Central air conditioning,Forced air (Natural gas),43.63677620000001,-79.4741031,,,0,0,1,1,1,1,0,0,0,0,1,0,0,0,0,1,1,0,0,0,0
233,1599990.0,"34 LOGGERHEAD GROVEToronto (Rouge), Ontario M1X1T7",E10433404,2750.0,Rouge E11,6.0,4.5,Detached,Central air conditioning,Forced air (Natural gas),43.8244419,-79.2167411,65.66666666666667,"108 ft ,8 in",0,0,0,0,0,0,0,0,0,0,0,0,0,0,0,0,0,0,0,0,0
234,1250000.0,"1411 - 100 HAYDEN STREETToronto (Church-Yonge Corridor), Ontario M4Y3C7",C10433378,1099.5,Church-Yonge Corridor,2.0,2.0,Apartment,Central air conditioning,Forced air (Natural gas),43.6705901,-79.38164139999999,,,0,0,1,0,1,0,1,0,1,0,1,0,0,0,0,0,0,0,0,0,0
235,849000.0,"PH110 - 18 HILLCREST AVENUEToronto (Willowdale East), Ontario M2N6T5",C10433373,1099.5,Willowdale East,2.0,2.0,Apartment,Central air conditioning,Forced air (Natural gas),43.7682091,-79.4110244,,,0,0,0,1,1,0,1,0,0,1,1,0,0,0,0,0,0,0,0,0,0
236,450000.0,"1901 - 10 MARTHA EATON WAYToronto (Brookhaven-Amesbury), Ontario M6M5B3",W10433346,949.5,Brookhaven-Amesbury,2.0,2.5,Apartment,Central air conditioning,Forced air (Natural gas),43.69730999999999,-79.48989999999999,,,0,0,0,0,0,0,1,0,0,0,0,0,0,0,0,0,1,0,0,0,0
237,519000.0,"802 - 1103 LESLIE STREETToronto (Banbury-Don Mills), Ontario M3C4G8",C10433357,649.5,Banbury-Don Mills,1.0,1.0,Apartment,Central air conditioning,,43.7202493,-79.3478986,,,0,0,0,1,1,1,1,0,1,0,1,0,0,0,0,0,0,0,0,0,0
238,3995000.0,"6 LYALL AVENUEToronto (East End-Danforth), Ontario M4E1V8",E10433306,4250.0,East End-Danforth,6.0,5.0,Detached,Central air conditioning,Radiant heat (Natural gas),43.6807471,-79.2981334,50.0,"116 ft ,9 in",0,0,0,0,0,0,0,0,0,0,0,0,0,0,0,0,0,0,0,0,0
239,928000.0,"401 - 449 WALMER ROADToronto (Forest Hill South), Ontario M5P2X9",C10433321,1099.5,Forest Hill South,2.0,2.5,Apartment,Central air conditioning,Forced air (Electric),43.686126,-79.4127484,,,0,0,1,0,1,1,1,0,0,0,1,0,0,0,0,0,0,0,0,0,0
240,1424900.0,"427 STRATHMORE BOULEVARDToronto (Danforth), Ontario M4C1N6",E10433291,1300.0,Danforth,4.0,3.5,Semi-detached,Central air conditioning,Forced air (Natural gas),43.6849716,-79.3193184,20.0,100 ft,0,0,0,0,0,0,0,0,0,0,0,0,0,0,0,0,0,0,0,0,0
241,745988.0,"N337 - 7 GOLDEN LION HEIGHTSToronto (Newtonbrook East), Ontario M2M0C1",C10433284,749.5,Newtonbrook East,2.0,2.0,Apartment,Central air conditioning,Forced air (Natural gas),43.7856248,-79.4160766,,,0,0,0,0,1,0,1,0,1,0,1,0,0,0,0,0,0,0,0,0,0
242,760000.0,"812 - 7 LORRAINE DRIVEToronto (Willowdale West), Ontario M2N7H2",C10433251,849.5,Willowdale West,3.0,2.0,Apartment,Central air conditioning,Forced air (Natural gas),43.778953,-79.4171087,,,0,0,1,1,1,1,1,0,0,0,0,0,0,0,0,1,1,0,0,0,0
243,879990.0,"83 CHESTNUT CRESCENTToronto (Clairlea-Birchmount), Ontario M1L1Y6",E10433234,1300.0,Clairlea-Birchmount,3.0,2.0,Semi-detached,Central air conditioning,Forced air (Natural gas),43.7162361,-79.27643259999999,30.0,100 ft,0,0,0,0,0,0,0,0,0,0,0,0,0,0,0,0,0,0,0,0,0
244,739900.0,"57 - 39 LEXINGTON AVENUEToronto (West Humber-Clairville), Ontario M8V2G4",W10433208,1299.5,West Humber-Clairville,4.0,2.0,Row / Townhouse,Central air conditioning,Forced air (Natural gas),43.7435798,-79.5983882,,,0,0,0,0,0,0,0,0,0,0,0,0,0,0,0,0,0,0,0,0,0
245,797999.0,"43 RIVERS EDGE DRIVEToronto (Mount Dennis), Ontario M6M5L4",W10433217,1299.5,Mount Dennis,3.0,4.0,Row / Townhouse,Central air conditioning,Forced air (Natural gas),43.6431651,-79.4843575,,,0,0,0,0,0,0,0,0,0,0,0,0,0,0,0,1,0,0,0,0,0
246,870000.0,"1505 - 59 ANNIE CRAIG DRIVEToronto (Mimico), Ontario M8V0C4",W10433196,849.5,Mimico,2.0,2.0,Apartment,Central air conditioning,Forced air (Natural gas),43.6249692,-79.47822099999999,,,0,0,0,0,0,0,1,0,0,0,1,0,0,0,0,0,0,0,0,0,0
247,1765000.0,"365B ROEHAMPTON AVENUEToronto (Mount Pleasant East), Ontario M4P1S3",C10433205,1699.5,Mount Pleasant East,3.0,5.0,Row / Townhouse,Central air conditioning,Other (Natural gas),43.7098494,-79.3868171,,,0,0,0,0,0,1,0,0,0,0,0,0,0,0,0,1,0,0,0,0,0
248,688000.0,"2307 - 70 FOREST MANOR ROADToronto (Henry Farm), Ontario M2J0A9",C10433188,749.5,Henry Farm,2.0,1.0,Apartment,Central air conditioning,Forced air,43.7745395,-79.3449495,,,0,0,1,1,1,1,1,0,0,0,1,0,0,0,0,0,0,0,0,0,0
249,2449000.0,"28A GIVINS STREETToronto (Trinity-Bellwoods), Ontario M6J2X7",C10433179,2250.0,Trinity-Bellwoods,4.0,4.5,Row / Townhouse,Central air conditioning,Forced air (Natural gas),43.6454839,-79.4181221,17.0,120 ft,0,0,0,0,0,0,0,0,0,0,0,0,0,0,0,0,0,0,0,0,0
250,568000.0,"3303 - 390 CHERRY STREETToronto (Waterfront Communities), Ontario L4E5B2",C10433160,549.5,Waterfront Communities C8,1.0,1.0,Apartment,Central air conditioning,Forced air (Natural gas),43.6508543,-79.3573616,,,0,0,1,1,1,1,1,0,1,0,0,0,0,0,0,1,0,0,0,0,0
251,619000.0,"609 - 68 MERTON STREETToronto (Mount Pleasant West), Ontario M4S0A7",C10433107,649.5,Mount Pleasant West,2.0,2.0,Apartment,Central air conditioning,Forced air (Natural gas),43.6967516,-79.3939669,,,0,0,0,1,1,0,1,0,0,0,1,0,0,0,0,1,0,0,0,0,0
252,2150000.0,"198 B MOORE AVENUEToronto (Rosedale-Moore Park), Ontario M4T1V8",C10433093,1750.0,Rosedale-Moore Park,3.0,3.0,Detached,Central air conditioning,Forced air (Natural gas),43.6945503,-79.38141139999999,26.25,"91 ft ,7 in",0,0,0,0,0,0,0,0,0,0,0,0,0,0,0,0,0,0,0,0,0
253,359900.0,"5-213 - 50 OLD KINGSTON ROADToronto (West Hill), Ontario M1E4Y1",E10433082,749.5,West Hill,2.0,1.0,Apartment,Window air conditioner,Baseboard heaters (Electric),43.7758657,-79.1820473,,,0,0,1,1,0,1,1,0,0,1,1,0,0,0,0,0,0,0,0,0,0
254,619000.0,"1610 - 2466 EGLINTON AVENUE EToronto (Eglinton East), Ontario M1K5J8",E10433059,1099.5,Eglinton East,3.0,2.0,Apartment,Central air conditioning,Forced air (Natural gas),43.7344404,-79.26098999999999,,,0,0,0,0,0,0,0,0,0,0,1,0,0,0,0,1,0,0,0,0,0
255,949000.0,"428 - 181 SHEPPARD AVE AVENUE SToronto (Willowdale East), Ontario M2N3A6",C10433057,749.5,Willowdale East,2.0,2.0,Apartment,Wall unit,Forced air (Natural gas),43.7635005,-79.4000727,,,0,0,0,0,1,1,1,0,0,0,0,0,0,0,0,1,0,0,0,0,0
256,700000.0,"137 - 34 VENETIAN CRESCENTToronto (Glenfield-Jane Heights), Ontario M3N2L8",W10433017,1299.5,Glenfield-Jane Heights,3.0,2.5,Row / Townhouse,Wall unit,Forced air (Electric),43.7535984,-79.514117,,,0,0,0,0,0,0,0,0,0,0,0,0,0,0,0,0,0,0,0,0,0
257,809000.0,"705 - 1 LOMOND DRIVEToronto (Islington-City Centre West), Ontario M8X2Z3",W10433009,949.5,Islington-City Centre West,2.0,2.0,Apartment,Central air conditioning,Forced air (Natural gas),43.6467192,-79.52212829999999,,,0,0,0,1,1,1,1,0,1,0,1,0,0,0,0,0,1,0,0,0,0
258,799000.0,"2210 - 299 MILL ROADToronto (Markland Wood), Ontario M9C4V9",W10432987,1299.5,Markland Wood,3.0,2.0,Apartment,Central air conditioning,Forced air (Natural gas),43.6384555,-79.58207519999999,,,0,0,0,0,0,0,1,0,0,0,0,0,0,0,0,0,0,0,0,0,0
259,1075000.0,"1007 - 360 BLOOR STREET EToronto (Rosedale-Moore Park), Ontario M4W3M3",C10433029,1499.5,Rosedale-Moore Park,2.0,2.0,Apartment,Central air conditioning,Heat Pump (Electric),43.6722459,-79.3782246,,,0,0,1,1,1,1,0,0,1,0,1,0,0,0,0,0,0,0,0,0,0
260,679999.0,"201 - 28 PEMBERTON AVENUEToronto (Newtonbrook East), Ontario M2M4L1",C10432997,1099.5,Newtonbrook East,2.0,2.0,Apartment,Central air conditioning,Forced air (Natural gas),43.7821074,-79.4132834,,,0,0,0,1,1,1,1,0,0,0,1,0,0,0,0,0,1,0,0,0,0
261,699000.0,"807 - 10 PARK LAWN ROADToronto (Mimico), Ontario M8V0H9",W10432972,849.5,Mimico,3.0,2.0,Apartment,Central air conditioning,Forced air (Natural gas),43.6233108,-79.48375089999999,,,0,0,1,0,1,0,1,0,0,0,1,0,0,0,0,0,1,0,0,0,0
262,1690000.0,"38 FIELDING AVENUEToronto (Danforth), Ontario M4J1R5",E10432951,1300.0,Danforth,4.0,2.0,Semi-detached,Central air conditioning,Forced air (Natural gas),43.68212219999999,-79.3388095,16.0,105 ft,0,0,0,0,0,0,0,0,0,0,0,0,0,0,0,0,0,0,0,0,0
263,998000.0,"35 DAYTON AVENUEToronto (Stonegate-Queensway), Ontario M8Z3L8",W10432876,1750.0,Stonegate-Queensway,4.0,3.5,Semi-detached,Central air conditioning,Forced air (Natural gas),43.6247148,-79.503104,25.0,145 ft,0,0,0,0,0,0,0,0,0,0,0,0,0,0,0,1,0,0,0,0,0
264,430000.0,"108 - 5155 SHEPPARD AVENUE EToronto (Malvern), Ontario M1B0C8",E10432865,549.5,Malvern,1.0,1.0,Apartment,Central air conditioning,Forced air (Natural gas),43.7939684,-79.2365674,,,0,0,0,1,0,1,0,0,1,0,0,0,0,0,0,0,1,0,0,0,0
265,499000.0,"12F - 86 GERRARD STREET EToronto (Church-Yonge Corridor), Ontario M5B2J1",C10432938,1099.5,Church-Yonge Corridor,2.0,1.0,Apartment,Window air conditioner,Forced air (Electric),43.660207,-79.37783739999999,,,0,0,0,1,1,1,1,0,0,0,1,0,0,0,0,1,1,0,0,0,0
266,899000.0,"16 FARM GREENWAYToronto (Parkwoods-Donalda), Ontario M3A3M2",C10432924,1499.5,Parkwoods-Donalda,4.0,5.0,Row / Townhouse,Central air conditioning,Forced air (Natural gas),43.76492409999999,-79.3192254,,,0,0,0,0,0,0,0,0,0,0,0,0,0,0,0,0,0,0,0,0,0
267,779900.0,"1007 - 70 ALEXANDER STREETToronto (Church-Yonge Corridor), Ontario M4Y3B6",C10432879,1099.5,Church-Yonge Corridor,2.0,2.0,Apartment,Central air conditioning,,43.66368749999999,-79.3806875,,,0,0,0,0,0,0,1,0,0,0,0,0,0,0,0,1,0,0,0,0,0
268,599000.0,"3512 - 208 QUEENS QUAY BOULEVARD WToronto (Waterfront Communities), Ontario M5N2Y5",C10432857,549.5,Waterfront Communities C1,1.0,1.0,Apartment,Central air conditioning,Forced air (Natural gas),43.6401517,-79.38068369999999,,,0,0,1,0,0,0,0,0,1,0,1,0,0,0,0,0,1,0,0,0,0
269,579900.0,"#213 - 3865 LAKE SHORE BOULEVARD WToronto (Long Branch), Ontario M8W0A2",W10432843,749.5,Long Branch,2.0,1.0,Apartment,Central air conditioning,Forced air (Natural gas),43.5898237,-79.5451385,,,0,0,1,1,1,1,1,0,0,0,1,0,0,0,0,0,1,0,0,0,0
270,790000.0,"66 CLIFF STREETToronto (Rockcliffe-Smythe), Ontario M6N4M1",W10432814,1300.0,Rockcliffe-Smythe,4.0,2.0,Semi-detached,Central air conditioning,Forced air (Natural gas),43.6800222,-79.4850647,22.75,120 ft,0,0,0,0,0,0,0,0,0,0,0,0,0,0,0,1,0,0,0,0,0
271,539000.0,"1811 - 410 MCLEVIN AVENUEToronto (Malvern), Ontario M1B5J5",E10432805,1099.5,Malvern,2.0,2.0,Apartment,Central air conditioning,Forced air (Natural gas),43.8101204,-79.2211451,,,0,0,1,1,0,1,1,0,1,0,1,0,0,0,0,1,0,0,0,0,0
272,1359990.0,"107 SE - 60 PRINCESS STREETToronto (Waterfront Communities), Ontario M5A2C7",C10432804,1499.5,Waterfront Communities C8,5.0,3.0,Apartment,Central air conditioning,Forced air (Natural gas),43.6495699,-79.36650379999999,,,0,0,1,1,1,0,0,0,1,0,0,0,0,0,0,0,0,0,0,0,0
273,699000.0,"111 - 1183 DUFFERIN STREETToronto (Dovercourt-Wallace Emerson-Junction), Ontario M6H4B7",W10432764,1099.5,Dovercourt-Wallace Emerson-Junction,3.0,3.5,Apartment,Central air conditioning,Forced air (Natural gas),43.66492179999999,-79.4371261,,,0,0,0,0,0,0,0,0,0,0,0,0,0,0,0,0,0,0,0,0,0
274,1099000.0,"18 GILLESPIE AVENUEToronto (Weston-Pellam Park), Ontario M6N2Y6",W10432746,1750.0,Weston-Pellam Park,4.0,3.5,Semi-detached,Wall unit,Radiant heat (Natural gas),43.6709818,-79.45892429999999,20.0,100 ft,0,0,0,0,0,0,0,0,0,0,0,0,0,0,0,0,0,0,0,0,0
275,661000.0,"212 - 760 THE QUEENS WAYToronto (Stonegate-Queensway), Ontario M8Z0E1",W10432732,749.5,Stonegate-Queensway,2.0,2.0,Apartment,Central air conditioning,Forced air (Natural gas),43.6261426,-79.5049417,,,0,0,0,1,0,1,1,0,0,0,1,0,0,0,0,0,0,0,0,0,0
276,1359000.0,"516 - 25 LAIDLAW STREETToronto (South Parkdale), Ontario M6K1X3",W10432724,1699.5,South Parkdale,4.0,3.0,Row / Townhouse,Central air conditioning,Forced air (Natural gas),43.6407039,-79.4263848,,,0,0,0,0,0,0,0,0,0,0,0,0,0,0,0,0,0,0,0,0,0
277,489900.0,"216 - 115 BONIS AVENUEToronto (Tam O'Shanter-Sullivan), Ontario M1T3S4",E10432798,949.5,Tam O'Shanter-Sullivan,3.0,2.0,Apartment,Central air conditioning,Forced air (Natural gas),43.7839924,-79.29537549999999,,,0,0,0,0,0,1,1,0,1,0,1,0,0,0,0,0,1,0,0,0,0
278,548000.0,"1123 - 3 GREYSTONE WALK DRIVEToronto (Kennedy Park), Ontario M1K5J4",E10432766,949.5,Kennedy Park,3.0,2.0,Apartment,Central air conditioning,Forced air (Natural gas),43.7244428,-79.25174609999999,,,0,0,1,1,0,0,0,0,1,0,0,0,0,0,0,0,1,0,0,0,0
279,495500.0,"3015 - 1 MASSEY SQUAREToronto (Crescent Town), Ontario M4C5L4",E10432747,849.5,Crescent Town,2.0,1.0,Apartment,,Radiant heat (Electric),43.696526,-79.294243,,,0,0,0,0,0,0,1,0,0,0,1,0,0,0,0,0,0,0,0,0,0
280,1250000.0,"544 MANNING AVENUEToronto (Palmerston-Little Italy), Ontario M6G2V9",C10432763,1300.0,Palmerston-Little Italy,3.0,2.0,Semi-detached,Central air conditioning,Forced air (Natural gas),43.66073600000001,-79.41502,20.083333333333332,121 ft,0,0,0,0,0,0,0,0,0,0,0,0,0,0,0,0,0,0,0,0,0
281,3150000.0,"6 LAILEY CRESCENTToronto (Willowdale East), Ontario M2N4G9",C10432761,4250.0,Willowdale East,7.0,6.5,Detached,Central air conditioning,Forced air (Natural gas),43.7776387,-79.3979696,55.333333333333336,120 ft,0,0,0,0,0,0,0,0,0,1,0,0,0,0,0,0,0,0,0,0,0
282,1209990.0,"105 SE - 60 PRINCESS STREETToronto (Waterfront Communities), Ontario M5A2C7",C10432757,1299.5,Waterfront Communities C8,4.0,3.0,Apartment,Central air conditioning,Forced air (Natural gas),43.6495699,-79.36650379999999,,,0,0,1,1,1,0,1,0,1,0,0,0,0,0,0,0,0,0,0,0,0
283,680000.0,"808 - 125 WESTERN BATTERY ROADToronto (Niagara), Ontario M6K3R8",C10432730,749.5,Niagara,2.0,2.0,Apartment,Central air conditioning,Forced air (Natural gas),43.6399902,-79.4167563,,,0,0,0,1,1,1,1,0,1,0,1,0,0,0,0,0,0,0,0,0,0
284,277500.0,"5204 - 50 OLD KINGSTON ROADToronto (West Hill), Ontario M1E4Y1",E10432702,549.5,West Hill,1.0,1.0,Apartment,Window air conditioner,Baseboard heaters (Electric),43.7758657,-79.1820473,,,0,0,0,0,0,0,0,0,0,1,1,0,0,0,0,0,0,0,0,0,0
285,615000.0,"317 - 5 NORTHTOWN WAYToronto (Willowdale East), Ontario M2N7A1",C10432703,649.5,Willowdale East,2.0,1.0,Apartment,Central air conditioning,Forced air (Natural gas),43.7749287,-79.41363249999999,,,0,0,1,1,1,1,0,0,0,0,1,0,0,0,0,1,0,0,0,0,0
286,1250000.0,"544 MANNING AvenueToronto, Ontario M6G2V9",40679384,1496.0,,3.0,2.0,Semi-detached,Central air conditioning,"Forced air, (Natural gas)",43.66073600000001,-79.41502,20.0,121 ft,0,0,0,0,0,0,0,0,0,0,0,0,0,0,0,0,0,0,0,0,0
287,619900.0,"2 GLAMORGAN Avenue Unit# 907Toronto, Ontario M1P2M8",40679270,1233.0,,3.0,2.5,Apartment,"None, Window air conditioner","Forced air, (Natural gas)",43.7694914,-79.2834037,,,0,0,0,1,0,0,1,0,0,0,0,0,0,0,0,0,0,0,0,0,0
288,578800.0,"710 - 859 THE QUEENSWAYToronto (Stonegate-Queensway), Ontario M8Z1N8",W10432635,649.5,Stonegate-Queensway,2.0,2.5,Apartment,Central air conditioning,Forced air (Natural gas),43.6245585,-79.5097756,,,0,0,0,0,1,0,0,0,0,0,0,0,0,0,0,0,0,0,0,0,0
289,804900.0,"610 - 36 ZORRA STREETToronto (Islington-City Centre West), Ontario M8Z0G5",W10432601,749.5,Islington-City Centre West,2.0,2.0,Apartment,Central air conditioning,Heat Pump (Electric),43.6197441,-79.5216896,,,0,0,1,1,1,0,1,0,1,1,0,0,0,0,0,1,0,0,0,0,0
290,790900.0,"620 - 36 ZORRA STREETToronto (Islington-City Centre West), Ontario M8Z0G5",W10432596,649.5,Islington-City Centre West,2.0,2.0,Apartment,Central air conditioning,Heat Pump (Electric),43.6197441,-79.5216896,,,0,0,1,1,1,0,1,0,1,1,0,0,0,0,0,1,0,0,0,0,0
291,1079900.0,"TH9 - 36 ZORRA STREETToronto (Islington-City Centre West), Ontario M8Z0G5",W10432592,1099.5,Islington-City Centre West,3.0,3.5,Apartment,Central air conditioning,Heat Pump (Electric),43.6197441,-79.5216896,,,0,0,1,1,1,0,1,0,1,1,0,0,0,0,0,1,0,0,0,0,0
292,873900.0,"3304 - 36 ZORRA STREETToronto (Islington-City Centre West), Ontario M8Z0G5",W10432587,649.5,Islington-City Centre West,2.0,2.0,Apartment,Central air conditioning,Heat Pump (Electric),43.6197441,-79.5216896,,,0,0,1,1,1,0,1,0,1,1,0,0,0,0,0,1,0,0,0,0,0
293,498800.0,"1403 - 236 ALBION ROADToronto (Elms-Old Rexdale), Ontario M9W6A6",W10432576,1299.5,Elms-Old Rexdale,3.0,2.0,Apartment,Central air conditioning,Forced air (Natural gas),43.7219633,-79.54401899999999,,,0,0,1,1,0,1,1,0,0,1,0,0,0,0,0,0,0,0,0,0,0
294,1950000.0,"169 ASHDALE AVENUEToronto (Greenwood-Coxwell), Ontario M4L2Y8",E10432640,2250.0,Greenwood-Coxwell,4.0,4.0,Detached,Central air conditioning,Forced air (Natural gas),43.6698804,-79.3205571,25.0,"120 ft ,10 in",0,0,0,0,0,0,0,0,0,1,0,0,0,0,0,0,0,0,0,0,0
295,698000.0,"PH501 - 38 LEE CENTRE DRIVEToronto (Woburn), Ontario M1H3J7",E10432619,949.5,Woburn,2.0,2.0,Apartment,Central air conditioning,Forced air (Natural gas),43.7817588,-79.2466125,,,0,0,1,0,1,1,0,0,1,1,1,0,0,0,0,1,1,0,0,0,0
296,749000.0,"407 - 501 ST. CLAIR AVENUE WToronto (Casa Loma), Ontario M5P0A2",C10432655,749.5,Casa Loma,2.0,2.0,Apartment,Central air conditioning,Heat Pump (Natural gas),43.6829978,-79.4178141,,,0,0,0,1,1,1,0,0,0,1,1,0,0,0,0,0,0,0,0,0,0
297,599995.0,"106 - 872 SHEPPARD AVENUE WToronto (Bathurst Manor), Ontario M3H2T5",C10432571,849.5,Bathurst Manor,3.0,2.0,Apartment,Central air conditioning,Forced air (Natural gas),43.7524082,-79.4546165,,,0,0,0,1,0,1,0,0,0,1,1,0,0,0,0,0,0,0,0,0,0
298,749000.0,"24A BEACHELL STREETToronto (Scarborough Village), Ontario M1J3B2",E10432564,1300.0,Scarborough Village,3.0,3.5,Row / Townhouse,Central air conditioning,Forced air (Natural gas),43.7436885,-79.2229211,16.333333333333332,"86 ft ,10 in",0,0,0,0,0,0,0,0,0,0,0,0,0,0,0,0,0,0,0,0,0
299,995000.0,"420 - 88 COLGATE AVENUEToronto (South Riverdale), Ontario M4M0A6",E10432553,849.5,South Riverdale,2.0,2.0,Apartment,Central air conditioning,Heat Pump (Natural gas),43.6623658,-79.3413344,,,0,0,0,0,1,0,0,0,1,0,1,0,0,0,0,1,1,0,0,0,0
300,475000.0,"1103 - 10 MUIRHEAD ROADToronto (Pleasant View), Ontario M2J4P9",C10432550,849.5,Pleasant View,2.0,1.0,Apartment,Central air conditioning,Forced air (Natural gas),43.77820639999999,-79.3385268,,,0,0,1,0,0,0,1,0,1,1,0,0,0,0,0,1,0,0,0,0,0
301,799000.0,"3209 - 252 CHURCH STREETToronto (Church-Yonge Corridor), Ontario M5B1Z2",C10432531,549.5,Church-Yonge Corridor,2.0,2.0,Apartment,Central air conditioning,Forced air (Natural gas),43.6560452,-79.377275,,,0,0,0,0,1,1,0,0,0,0,0,0,0,0,0,0,0,0,0,0,0
302,3789900.0,"170 BURNDALE AVENUEToronto (Lansing-Westgate), Ontario M2N1T2",C10432520,4250.0,Lansing-Westgate,5.0,6.5,Detached,Central air conditioning,Forced air (Natural gas),43.7623883,-79.4199884,50.0,"117 ft ,8 in",0,0,0,0,0,0,0,0,0,0,0,0,0,0,0,0,0,0,0,0,0
303,1199000.0,"7 CANTON AVENUEToronto (Downsview-Roding-CFB), Ontario M3M1N1",W10432494,1750.0,Downsview-Roding-CFB,4.0,2.0,Detached,Central air conditioning,Forced air (Natural gas),43.72429109999999,-79.4964663,50.0,154 ft,0,0,0,0,0,0,0,0,0,0,0,0,0,0,0,1,0,0,0,0,0
304,559900.0,"802 - 859 THE QUEENSWAYToronto (Stonegate-Queensway), Ontario M8Z1N8",W10432473,649.5,Stonegate-Queensway,1.0,1.0,Apartment,Central air conditioning,Forced air (Natural gas),43.6245585,-79.5097756,,,0,0,0,1,0,1,1,0,0,0,0,0,0,0,0,0,0,0,0,0,0
305,999000.0,"101 - 1183 DUFFERIN STREETToronto (Dovercourt-Wallace Emerson-Junction), Ontario M6H4B7",W10432464,1499.5,Dovercourt-Wallace Emerson-Junction,3.0,3.5,Apartment,Central air conditioning,Forced air (Natural gas),43.66492179999999,-79.4371261,,,0,0,0,0,0,0,0,0,0,0,0,0,0,0,0,0,0,0,0,0,0
306,749900.0,"208 - 1100 SHEPPARD AVENUE WToronto (York University Heights), Ontario M3K0E4",W10432437,749.5,York University Heights,2.0,2.0,Apartment,Central air conditioning,Forced air (Natural gas),43.7517462,-79.46637489999999,,,0,0,0,1,1,1,1,0,1,0,0,0,0,0,0,1,1,0,0,0,0
307,829000.0,"153 - 25 VIKING LANEToronto (Islington-City Centre West), Ontario M9B0A1",W10432418,1099.5,Islington-City Centre West,3.0,3.5,Apartment,Central air conditioning,Forced air (Natural gas),43.6383246,-79.53595299999999,,,0,0,1,1,1,0,1,0,0,1,1,0,0,0,0,0,1,0,0,0,0
308,580000.0,"701 - 90 GLEN EVEREST ROADToronto (Birchcliffe-Cliffside), Ontario M1N0C3",E10432451,649.5,Birchcliffe-Cliffside,2.0,1.0,Apartment,Central air conditioning,Forced air (Natural gas),43.7031342,-79.25277299999999,,,0,0,0,1,1,0,1,0,0,0,1,0,0,0,0,0,0,0,0,0,0
309,679000.0,"2704 - 89 DUNFIELD AVENUEToronto (Mount Pleasant West), Ontario M4S0A4",C10432486,549.5,Mount Pleasant West,2.0,1.0,Apartment,Central air conditioning,Forced air (Natural gas),43.70705479999999,-79.3950141,,,0,0,0,0,0,0,1,0,0,0,1,0,0,0,0,0,0,0,0,0,0
310,889000.0,"505 - 47 MUTUAL STREETToronto (Church-Yonge Corridor), Ontario M5B0C6",C10432452,849.5,Church-Yonge Corridor,3.0,2.0,Apartment,Central air conditioning,,43.6549839,-79.3746244,,,0,0,0,1,1,1,0,0,0,0,0,0,0,0,0,1,0,0,0,0,0
311,860000.0,"4407 - 395 BLOOR STREET EToronto (North St. James Town), Ontario M4W0B4",C10432441,649.5,North St. James Town,2.0,1.0,Apartment,Central air conditioning,Forced air (Natural gas),43.6719746,-79.3774195,,,0,0,1,1,1,0,1,0,1,0,0,0,0,0,0,0,1,0,0,0,0
312,569000.0,"1907 - 5500 YONGE STREETToronto (Willowdale West), Ontario M2N7L1",C10432410,549.5,Willowdale West,1.0,1.0,Apartment,Central air conditioning,Forced air (Natural gas),43.7782504,-79.4154722,,,0,0,0,0,1,1,1,0,1,0,1,0,0,0,0,1,1,0,0,0,0
313,520000.0,"303 - 70 OLD SHEPPARD AVENUEToronto (Pleasant View), Ontario M2J3L6",C10432398,849.5,Pleasant View,2.0,1.0,Apartment,,Baseboard heaters (Electric),43.7782924,-79.3365438,,,0,0,0,0,0,0,1,0,0,0,0,0,0,0,0,0,0,0,0,0,0
314,849000.0,"1604 - 1 MARKET STREETToronto (Waterfront Communities), Ontario M5E0A2",C10432399,749.5,Waterfront Communities C8,2.0,2.0,Apartment,Central air conditioning,Forced air (Natural gas),43.6468752,-79.3710718,,,0,0,0,1,1,0,1,0,0,0,1,0,0,0,0,0,1,0,0,0,0
315,899000.0,"704 - 500 DUPONT STREETToronto (Annex), Ontario M6G0B8",C10432397,849.5,Annex,3.0,2.0,Apartment,Central air conditioning,Forced air (Natural gas),43.6729067,-79.4161383,,,0,0,0,0,0,0,1,0,0,0,1,0,0,0,0,0,0,0,0,0,0
316,469000.0,"907 - 840 QUEENS PLATE DRIVEToronto (West Humber-Clairville), Ontario M9W6Z3",W10432346,549.5,West Humber-Clairville,1.0,1.0,Apartment,,Forced air (Natural gas),43.7204262,-79.6034454,,,0,0,0,0,0,0,1,0,0,0,1,0,0,0,0,0,0,0,0,0,0
317,599000.0,"2613 - 170 FORT YORK BOULEVARDToronto (Waterfront Communities), Ontario M5V0E6",C10432383,649.5,Waterfront Communities C1,2.0,1.0,Apartment,Central air conditioning,Forced air (Natural gas),43.6392929,-79.4000267,,,0,0,0,0,0,0,1,0,0,0,1,0,0,0,0,0,0,0,0,0,0
318,889000.0,"TH 141 - 21 RUTTAN STREETToronto (Dufferin Grove), Ontario M6P0A1",C10432368,1099.5,Dufferin Grove,3.0,2.0,Row / Townhouse,Central air conditioning,Forced air (Natural gas),43.6574097,-79.4464574,,,0,0,1,0,0,1,0,0,0,0,0,0,0,0,0,0,1,0,0,0,0
319,698800.0,"404 - 1486 BATHURST STREETToronto (Humewood-Cedarvale), Ontario M5P3G9",C10432360,749.5,Humewood-Cedarvale,2.0,2.5,Apartment,Central air conditioning,Forced air (Natural gas),43.6838048,-79.41896299999999,,,0,0,0,1,1,0,1,0,1,0,1,0,0,0,0,0,0,0,0,0,0
320,579000.0,"301 - 10 CAPREOL COURTToronto (Waterfront Communities), Ontario M5V4B3",C10432339,549.5,Waterfront Communities C1,2.0,1.0,Apartment,Central air conditioning,Forced air (Natural gas),43.6401979,-79.3959363,,,0,0,1,0,1,1,1,0,0,0,0,0,0,0,0,0,0,0,0,0,0
321,809000.0,"1 LOMOND Drive Unit# 705Etobicoke, Ontario M8X2Z3",40679216,968.0,,2.0,2.0,Apartment,Central air conditioning,Forced air,43.6467192,-79.52212829999999,,,0,0,0,1,0,0,1,0,0,0,0,0,0,0,0,0,0,0,0,0,0
322,599999.0,"426 - 80 MARINE PARADE DRIVEToronto (Mimico), Ontario M8V0A3",W10432313,649.5,Mimico,2.0,1.0,Apartment,Central air conditioning,Forced air (Natural gas),43.6261915,-79.4773594,,,0,0,1,0,1,0,1,0,0,0,1,0,0,0,0,0,0,0,0,0,0
323,698000.0,"416 - 80 COE HILL DRIVEToronto (High Park-Swansea), Ontario M6S3C9",W10432201,949.5,High Park-Swansea,2.0,1.0,Apartment,Window air conditioner,Hot water radiator heat (Natural gas),43.6403781,-79.4722034,,,0,0,0,0,0,0,1,0,0,0,1,0,0,0,0,0,0,0,0,0,0
324,1499000.0,"61 FAIRVIEW AVENUEToronto (High Park North), Ontario M6P3A3",W10432190,1750.0,High Park North,5.0,4.5,Semi-detached,Central air conditioning,Forced air (Natural gas),43.6594685,-79.4757466,18.833333333333332,115 ft,0,0,0,0,0,0,0,0,0,0,0,0,0,0,0,0,0,0,0,0,0
325,655000.0,"410 - 45 SILVERSTONE DRIVEToronto (Mount Olive-Silverstone-Jamestown), Ontario M9V4B1",W10432177,1499.5,Mount Olive-Silverstone-Jamestown,3.0,2.0,Apartment,Central air conditioning,Forced air (Natural gas),43.7442019,-79.5873106,,,0,0,0,0,0,0,1,0,0,0,1,0,0,0,0,0,0,0,0,0,0
326,719999.0,"3407 - 15 VIKING LANEToronto (Islington-City Centre West), Ontario M9B0A4",W10432155,849.5,Islington-City Centre West,2.0,2.0,Apartment,Central air conditioning,Forced air (Natural gas),43.6393665,-79.53531070000001,,,0,0,1,0,0,1,1,0,0,0,1,0,0,0,0,0,0,0,0,0,0
327,635000.0,"406 - 2720 DUNDAS STREET WToronto (Junction Area), Ontario M6P1Y2",W10432142,649.5,Junction Area,1.0,1.0,Apartment,Central air conditioning,Heat Pump (Natural gas),43.6650475,-79.4597091,,,0,0,0,0,1,0,1,0,0,0,1,0,0,0,0,0,0,0,0,0,0
328,549000.0,"730 - 460 ADELAIDE STREET EToronto (Moss Park), Ontario M5A1N4",C10432316,549.5,Moss Park,2.0,1.0,Apartment,Central air conditioning,Forced air (Natural gas),43.6529344,-79.36660599999999,,,0,0,0,1,1,0,1,0,0,0,1,0,0,0,0,0,0,0,0,0,0
329,599000.0,"907 - 185 ROEHAMPTON AVENUEToronto (Mount Pleasant West), Ontario M4P1R4",C10432321,549.5,Mount Pleasant West,2.0,1.0,Apartment,Central air conditioning,Forced air (Natural gas),43.7090751,-79.3928229,,,0,0,1,1,1,0,1,0,0,0,1,0,0,0,0,1,1,0,0,0,0
330,720000.0,"216 - 20 BLOORVIEW PLACEToronto (Don Valley Village), Ontario M2J0A6",C10432283,949.5,Don Valley Village,2.0,2.0,Apartment,Central air conditioning,Forced air (Natural gas),43.7751142,-79.3594175,,,0,0,1,1,1,1,1,0,0,0,1,0,0,0,0,0,0,0,0,0,0
331,669990.0,"3010 - 39 ROEHAMPTON AVENUEToronto (Mount Pleasant West), Ontario M4P1P9",C10432314,649.5,Mount Pleasant West,2.0,2.0,Apartment,Central air conditioning,Forced air,43.7081849,-79.3970648,,,0,0,0,1,1,1,1,0,0,0,1,0,0,0,0,1,1,0,0,0,0
332,629999.0,"3105 - 390 CHERRY STREETToronto (Waterfront Communities), Ontario M5A0E2",C10432267,549.5,Waterfront Communities C8,2.0,1.0,Apartment,Central air conditioning,Forced air (Natural gas),43.6508543,-79.3573616,,,0,0,1,1,1,0,1,0,1,0,1,0,0,0,0,1,0,0,0,0,0
333,649900.0,"410 - 295 ADELAIDE STREET WToronto (Waterfront Communities), Ontario M5V0L4",C10432254,749.5,Waterfront Communities C1,2.0,2.5,Apartment,Central air conditioning,Forced air (Natural gas),43.64767519999999,-79.390532,,,0,0,1,1,1,0,1,0,0,1,1,0,0,0,0,0,0,0,0,0,0
334,468000.0,"2810 - 88 SHEPPARD AVENUE EToronto (Willowdale East), Ontario M2N0G9",C10432249,549.5,Willowdale East,1.0,1.0,Apartment,Central air conditioning,Forced air (Natural gas),43.7606479,-79.41579349999999,,,0,0,0,0,1,1,1,0,0,0,0,0,0,0,0,0,0,0,0,0,0
335,549000.0,"1605 - 30 CANTERBURY PLACEToronto (Willowdale West), Ontario M2N0B9",C10432229,849.5,Willowdale West,2.0,2.0,Apartment,Central air conditioning,Forced air (Electric),43.7732072,-79.4154398,,,0,0,0,0,1,1,1,0,1,1,1,0,0,0,0,0,0,0,0,0,0
336,549000.0,"30 CANTERBURY Place Unit# 1605Toronto, Ontario M2N0B9",40669500,845.0,,2.0,2.0,Apartment,Central air conditioning,"(Electric), Forced air",43.7732072,-79.4154398,,,0,0,0,0,0,0,1,0,0,0,0,0,0,0,0,0,0,0,0,0,0
337,555000.0,"407 - 1070 SHEPPARD AVENUE WToronto (York University Heights), Ontario M3J0G8",W10432041,649.5,York University Heights,2.0,1.0,Apartment,Central air conditioning,Forced air (Natural gas),43.7506004,-79.465034,,,0,0,1,1,1,1,1,0,0,0,0,0,0,0,0,1,0,0,0,0,0
338,628000.0,"1109 - 125 VILLAGE GREEN SQUAREToronto (Agincourt South-Malvern West), Ontario M1S0G3",E10432090,849.5,Agincourt South-Malvern West,2.0,2.0,Apartment,Central air conditioning,Forced air (Natural gas),43.777527,-79.28102799999999,,,0,0,1,1,1,0,1,0,0,0,1,0,0,0,0,1,0,0,0,0,0
339,519000.0,"511 - 8 PEMBERTON AVENUEToronto (Newtonbrook East), Ontario M2M4K8",C10432122,649.5,Newtonbrook East,1.0,1.0,Apartment,Central air conditioning,Forced air (Natural gas),43.7814402,-79.4134516,,,0,0,0,1,1,1,1,0,1,0,1,0,0,0,0,0,0,0,0,0,0
340,3479000.0,"476 BEDFORD PARK AVENUEToronto (Bedford Park-Nortown), Ontario M5M1K1",C10432104,3250.0,Bedford Park-Nortown,5.0,5.5,Detached,Central air conditioning,Forced air (Natural gas),43.7235666,-79.422146,40.0,133 ft,0,0,1,0,0,0,0,0,0,0,0,0,0,0,0,0,0,0,0,0,0
341,599999.0,"1104 - 8 YORK STREETToronto (Waterfront Communities), Ontario M5J2Y2",C10432026,549.5,Waterfront Communities C1,1.0,1.0,Apartment,Central air conditioning,Forced air (Natural gas),43.640542,-79.38099489999999,,,0,0,1,1,1,0,1,0,0,0,1,0,0,0,0,0,0,0,0,0,0
342,1099000.0,"UPH19 - 21 NELSON STREETToronto (Waterfront Communities), Ontario M5V3H9",C10432016,1299.5,Waterfront Communities C1,2.0,2.5,Apartment,Central air conditioning,Forced air (Natural gas),43.6488776,-79.3880393,,,0,0,1,0,0,1,0,0,0,0,1,0,0,0,0,0,0,0,0,0,0
343,1375000.0,"TH115 - 50 DUNFIELD AVENUEToronto (Mount Pleasant West), Ontario M4S0E4",C10431997,1299.5,Mount Pleasant West,4.0,3.0,Row / Townhouse,Central air conditioning,Forced air (Natural gas),43.7058337,-79.3952232,,,0,0,1,0,1,0,0,0,1,0,0,0,0,0,0,1,0,0,0,0,0
344,499900.0,"917 - 1700 EGLINTON AVENUE EToronto (Victoria Village), Ontario M4A2X4",C10431989,649.5,Victoria Village,1.0,1.0,Apartment,Central air conditioning,Forced air (Natural gas),43.7262913,-79.3128424,,,0,0,0,0,0,0,1,0,0,0,1,0,0,0,0,1,0,0,0,0,0
345,899900.0,"118 GLENCREST BOULEVARDToronto (O'Connor-Parkview), Ontario M4B1L8",E10431934,1750.0,O'Connor-Parkview,4.0,2.0,Detached,Central air conditioning,Forced air (Natural gas),43.7081053,-79.2971369,33.0,142 ft,0,0,0,0,0,0,0,0,0,0,0,0,0,0,0,0,0,0,0,0,0
346,674999.0,"614 - 98 STRACHAN AVENUEToronto (Niagara), Ontario M6J3M6",C10431956,649.5,Niagara,2.0,1.0,Row / Townhouse,Central air conditioning,Forced air (Natural gas),43.6411781,-79.41194569999999,,,0,0,0,0,0,0,1,0,0,0,0,0,0,0,0,0,0,0,0,0,0
347,1269000.0,"TH116 - 50 DUNFIELD AVENUEToronto (Mount Pleasant West), Ontario M4S0E4",C10431955,1099.5,Mount Pleasant West,2.0,3.5,Row / Townhouse,Central air conditioning,Forced air (Natural gas),43.7058337,-79.3952232,,,0,0,1,0,1,0,0,0,1,0,0,0,0,0,0,1,0,0,0,0,0
348,1495000.0,"337 - 40 OAKLANDS AVENUEToronto (Yonge-St. Clair), Ontario M4V2Z3",C10431961,1699.5,Yonge-St. Clair,2.0,3.5,Apartment,Central air conditioning,Forced air (Electric),43.68040480000001,-79.39840699999999,,,0,0,0,0,1,1,1,0,0,0,1,0,0,0,0,0,0,0,0,1,0
349,639000.0,"515 - 111 ELIZABETH STREETToronto (Bay Street Corridor), Ontario M5G1P7",C10431945,549.5,Bay Street Corridor,1.0,1.0,Apartment,Central air conditioning,Heat Pump (Natural gas),43.6551126,-79.3848059,,,0,0,1,0,1,1,1,0,0,0,0,0,0,0,0,1,1,0,0,0,0
350,2179000.0,"416 SACKVILLE STREETToronto (Cabbagetown-South St. James Town), Ontario M4X1S9",C10431939,2250.0,Cabbagetown-South St. James Town,3.0,5.0,Semi-detached,Central air conditioning,Forced air (Natural gas),43.6672749,-79.3662042,18.166666666666668,96 ft,0,0,0,0,0,0,0,0,0,0,0,0,0,0,0,1,0,0,0,0,0
351,2699000.0,"812 - 80 FRONT STREET EToronto (Church-Yonge Corridor), Ontario M5E1T4",C10431941,2374.5,Church-Yonge Corridor,3.0,3.5,Apartment,Central air conditioning,Forced air (Natural gas),43.6492034,-79.37273449999999,,,0,0,1,0,1,0,0,0,0,1,1,0,0,0,0,0,0,0,0,0,0
352,2175000.0,"11 PRINCE RUPERT AVENUEToronto (High Park North), Ontario M6P2A8",W10431914,1750.0,High Park North,4.0,4.5,Semi-detached,Central air conditioning,Forced air (Natural gas),43.6584742,-79.45392509999999,16.083333333333332,115 ft,0,0,0,0,0,0,0,0,0,0,0,0,0,0,0,1,0,0,0,0,0
353,1400000.0,"33 MORGAN AVENUEToronto (Stonegate-Queensway), Ontario M8Y2Z9",W10431867,2750.0,Stonegate-Queensway,6.0,4.0,Duplex,,Forced air (Natural gas),43.6245858,-79.5004908,33.583333333333336,99 ft,0,0,0,0,0,0,0,0,0,0,0,0,0,0,0,0,0,0,0,0,0
354,875000.0,"55 DEANSCROFT SQUAREToronto (West Hill), Ontario M1E4W8",E10431923,1300.0,West Hill,4.0,3.5,Semi-detached,"Central air conditioning, Ventilation system",Forced air (Natural gas),43.7649123,-79.17645189999999,27.0,108 ft,0,0,0,0,0,0,0,0,0,0,0,0,0,0,0,1,0,0,0,0,0
355,1230000.0,"9 IVY GREEN CRESCENTToronto (Morningside), Ontario M1G2Z2",E10431880,1750.0,Morningside,5.0,5.0,Detached,Central air conditioning,Forced air (Natural gas),43.7733636,-79.21225869999999,50.333333333333336,120 ft,0,0,0,0,0,0,0,0,0,0,0,0,0,0,0,1,0,0,0,0,0
356,628880.0,"602 - 350 ALTON TOWERS CIRCLEToronto (Milliken), Ontario M1V5E3",E10431848,1099.5,Milliken,3.0,2.0,Apartment,Central air conditioning,Forced air (Natural gas),43.8228272,-79.27515439999999,,,0,0,0,1,0,1,0,0,1,1,1,0,0,0,0,1,1,0,0,0,0
357,2075000.0,"123 - 1 BENVENUTO PLACEToronto (Casa Loma), Ontario M4V2L1",C10431898,1499.5,Casa Loma,3.0,3.5,Apartment,Central air conditioning,Forced air (Natural gas),43.6813727,-79.40019889999999,,,0,0,0,0,1,1,0,0,0,0,1,0,0,0,0,0,0,0,0,0,0
358,699000.0,"210 - 800 KING STREET WToronto (Niagara), Ontario M5V3M7",C10431900,749.5,Niagara,2.0,2.5,Apartment,Central air conditioning,Forced air (Natural gas),43.6432411,-79.4072,,,0,0,0,1,0,1,1,0,0,1,0,0,0,0,0,0,0,0,0,0,0
359,1088000.0,"703 - 1 CONCORDE PLACEToronto (Banbury-Don Mills), Ontario M3C3K5",C10431858,1899.5,Banbury-Don Mills,2.0,2.0,Apartment,Central air conditioning,Forced air (Natural gas),43.7285998,-79.3275712,,,0,0,1,1,1,0,1,0,1,0,1,0,0,0,0,0,0,0,0,0,0
360,4595000.0,"279 BLYTHWOOD ROADToronto (Mount Pleasant West), Ontario M4N1A7",C10431831,3250.0,Mount Pleasant West,5.0,4.5,Detached,Central air conditioning,Radiant heat (Natural gas),43.71798949999999,-79.3918916,51.0,188 ft,0,0,0,0,0,0,0,0,0,0,0,0,0,0,0,0,0,0,0,0,0
361,749999.0,"S210 - 120 BAYVIEW AVENUEToronto (Waterfront Communities), Ontario M5A0G4",C10431812,749.5,Waterfront Communities C8,2.0,1.0,Apartment,Central air conditioning,Forced air (Natural gas),43.65399619999999,-79.3540871,,,0,0,1,1,1,0,1,0,0,0,1,0,0,0,0,0,1,0,0,0,0
362,524990.0,"405 - 3233 EGLINTON AVENUE EToronto (Scarborough Village), Ontario M1J3N6",E10431842,1299.5,Scarborough Village,3.0,2.0,Apartment,Central air conditioning,Forced air (Natural gas),43.7436627,-79.21314249999999,,,0,0,1,1,1,1,1,0,0,0,1,0,0,0,0,0,0,0,0,0,0
363,699000.0,"913 - 629 KING STREET WToronto (Waterfront Communities), Ontario M5V0G9",C10431800,549.5,Waterfront Communities C1,1.0,1.0,Apartment,Central air conditioning,Forced air (Natural gas),43.644001,-79.4015398,,,0,0,1,1,1,0,1,0,0,0,1,0,0,0,0,0,0,0,0,0,0
364,2245000.0,"PH 1 - 225 BRUNSWICK AVENUEToronto (University), Ontario M5S2M6",C10431793,1299.5,University,1.0,2.5,Row / Townhouse,Central air conditioning,Heat Pump (Electric),43.6640595,-79.4064076,,,0,0,0,0,0,0,0,0,0,0,0,0,0,0,0,0,0,0,0,0,0
365,1068000.0,"2003 - 1080 BAY STREETToronto (Bay Street Corridor), Ontario M5S0A5",C10431780,649.5,Bay Street Corridor,2.0,1.0,Apartment,Central air conditioning,Forced air (Natural gas),43.6669944,-79.3887278,,,0,0,0,1,1,1,1,0,0,0,1,0,0,0,0,0,1,0,0,0,0
366,1199900.0,"87 NORTHEY DRIVEToronto (St. Andrew-Windfields), Ontario M2L2S8",C10431772,1300.0,St. Andrew-Windfields,3.0,2.5,Semi-detached,Central air conditioning,Forced air (Natural gas),43.7639657,-79.3662942,30.166666666666668,"127 ft ,10 in",0,0,0,0,0,0,0,0,0,0,0,0,0,0,0,0,0,0,0,0,0
367,4188000.0,"225 DUNFOREST AVENUEToronto (Willowdale East), Ontario M2N4J6",C10431769,4250.0,Willowdale East,6.0,6.5,Detached,Central air conditioning,Forced air (Natural gas),43.7784647,-79.4005392,56.583333333333336,"135 ft ,8 in",0,0,0,0,0,0,0,0,0,0,0,0,0,0,0,0,0,0,0,0,0
368,609000.0,"2415 - 25 RICHMOND STREET EToronto (Church-Yonge Corridor), Ontario M5C0A6",C10431719,549.5,Church-Yonge Corridor,2.0,1.0,Apartment,Central air conditioning,Forced air (Natural gas),43.6519017,-79.37721650000002,,,0,0,1,1,0,0,1,0,0,0,0,0,0,0,0,0,1,0,0,0,0
369,2585000.0,"10 STUART AVENUEToronto (Lansing-Westgate), Ontario M2N1B1",C10431702,3250.0,Lansing-Westgate,4.0,6.0,Detached,Central air conditioning,Hot water radiator heat (Natural gas),43.7546286,-79.41422179999999,102.25,125 ft,0,0,1,0,0,0,0,0,0,0,0,0,0,0,0,0,0,0,0,0,0
370,499000.0,"514 - 1808 ST CLAIR AVENUE WToronto (Weston-Pellam Park), Ontario M6N0C1",W10431680,549.5,Weston-Pellam Park,1.0,1.0,Apartment,Central air conditioning,Forced air (Natural gas),43.6738836,-79.4624341,,,0,0,0,1,0,0,1,0,1,0,0,0,0,0,0,0,0,0,0,0,0
371,589000.0,"410 - 10 NORTHTOWN WAYToronto (Willowdale East), Ontario M2N7L4",C10431693,649.5,Willowdale East,2.0,1.0,Apartment,Central air conditioning,Forced air (Natural gas),43.7759274,-79.4132893,,,0,0,0,0,0,0,1,0,0,0,1,0,0,0,0,0,0,0,0,0,0
372,625000.0,"721 - 20 BRUYERES MEWSToronto (Niagara), Ontario M5V0G8",C10431659,649.5,Niagara,2.0,1.0,Apartment,Central air conditioning,Forced air (Natural gas),43.6375024,-79.4009141,,,0,0,0,0,0,0,1,0,0,0,1,0,0,0,0,1,1,0,0,0,0
373,719000.0,"708 - 36 FOREST MANOR ROADToronto (Henry Farm), Ontario M2J0H3",C10431657,849.5,Henry Farm,2.0,2.0,Apartment,"Central air conditioning, Ventilation system",Forced air (Natural gas),43.7717131,-79.3457636,,,0,0,1,1,1,0,1,0,0,0,1,0,0,0,0,0,0,0,0,0,0
374,523000.0,"1703 - 85 EAST LIBERTY STREETToronto (Niagara), Ontario M6K3R4",C10431653,549.5,Niagara,1.0,1.0,Apartment,Central air conditioning,Forced air (Natural gas),43.6381606,-79.4155672,,,0,0,1,1,1,0,1,0,0,0,1,0,0,0,0,1,0,0,0,0,0
375,549990.0,"205 - 1328 BIRCHMOUNT ROADToronto (Wexford-Maryvale), Ontario M1R0B6",E10431645,849.5,Wexford-Maryvale,2.0,2.0,Apartment,Central air conditioning,Forced air (Natural gas),43.7485378,-79.2861688,,,0,0,0,0,0,0,1,0,0,0,1,0,0,0,0,1,1,0,0,0,0
376,1399000.0,"52 ROXANNE CRESCENTToronto (Milliken), Ontario M1V4J5",E10431638,2250.0,Milliken,5.0,4.5,Detached,Central air conditioning,Forced air (Natural gas),43.8265307,-79.28561169999999,39.583333333333336,"115 ft ,9 in",0,0,0,0,0,0,0,0,0,0,0,0,0,0,0,0,0,0,0,0,0
377,679000.0,"2207 - 51 EAST LIBERTY STREETToronto (Niagara), Ontario M6K3P8",C10431611,749.5,Niagara,2.0,2.5,Apartment,Central air conditioning,Forced air (Natural gas),43.6387841,-79.41201439999999,,,0,0,0,1,1,0,1,0,1,0,0,0,0,0,0,0,0,0,0,0,0
378,1349800.0,"135 HOPE STREETToronto (Corso Italia-Davenport), Ontario M6E1K2",W10431601,1300.0,Corso Italia-Davenport,5.0,3.0,Triplex,Central air conditioning,Forced air (Natural gas),43.6810344,-79.44991379999999,18.083333333333332,120 ft,0,0,0,0,0,0,0,0,0,0,0,0,0,0,0,0,0,0,0,0,0
379,679999.0,"4403 - 70 ANNIE CRAIG DRIVEToronto (Mimico), Ontario M8V0G2",W10431579,649.5,Mimico,2.0,2.0,Apartment,Central air conditioning,Forced air (Natural gas),43.6246558,-79.4791133,,,0,0,0,0,0,0,1,0,0,0,1,0,0,0,0,0,1,0,0,0,0
380,479000.0,"4407 - 8 EGLINTON AVENUE EToronto (Mount Pleasant West), Ontario M4P0C1",C10431591,549.5,Mount Pleasant West,1.0,1.0,Apartment,Central air conditioning,Forced air (Natural gas),43.7072077,-79.3977826,,,0,0,0,0,0,0,1,0,0,0,1,0,0,0,0,1,0,0,0,0,0
381,550000.0,"807 - 18 HARRISON GARDEN BOULEVARDToronto (Willowdale East), Ontario M2N7J7",C10431578,549.5,Willowdale East,1.0,1.0,Apartment,Central air conditioning,Forced air (Natural gas),43.7574047,-79.40930159999999,,,0,0,1,1,1,1,1,0,0,0,1,0,0,0,0,0,0,0,0,0,0
382,799000.0,"3009 - 375 KING STREET WToronto (Waterfront Communities), Ontario M5V1K5",C10431572,749.5,Waterfront Communities C1,2.0,2.0,Apartment,Central air conditioning,Forced air (Natural gas),43.6457486,-79.3930826,,,0,0,0,0,0,0,1,0,0,0,1,0,0,0,0,0,0,0,0,0,0
383,739900.0,"1802 - 20 THOMAS RILEY ROADToronto (Islington-City Centre West), Ontario M9B1B1",W10431547,849.5,Islington-City Centre West,2.0,2.0,Apartment,Central air conditioning,Forced air (Natural gas),43.634172,-79.5406824,,,0,0,0,0,0,0,1,0,0,0,1,0,0,0,0,0,0,0,0,0,0
384,740000.0,"1832 - 525 ADELAIDE STREET WToronto (Waterfront Communities), Ontario M5V0N7",C10431567,649.5,Waterfront Communities C1,2.0,2.0,Apartment,Central air conditioning,Forced air (Natural gas),43.6451715,-79.40207749999999,,,0,0,0,1,1,1,1,0,0,0,1,0,0,0,0,0,1,0,0,0,0
385,605000.0,"101 - 17 KENASTON GARDENSToronto (Bayview Village), Ontario M2K0B9",C10431548,749.5,Bayview Village,2.0,1.0,Apartment,Central air conditioning,Forced air (Natural gas),43.7658089,-79.3855608,,,0,0,0,1,1,1,1,0,0,0,1,0,0,0,0,1,0,0,0,0,0
386,689000.0,"1310 - 2 SONIC WAYToronto (Flemingdon Park), Ontario M3C0P2",C10431541,749.5,Flemingdon Park,2.0,2.0,Apartment,Central air conditioning,Forced air (Natural gas),43.7194375,-79.3364421,,,0,0,0,1,1,1,1,0,1,0,1,0,0,0,0,0,0,0,0,0,0
387,2990900.0,"2002 - 195 MCCAUL STREETToronto (Kensington-Chinatown), Ontario M5A0S8",C10431532,2374.5,Kensington-Chinatown,3.0,3.5,Apartment,Central air conditioning,Forced air (Natural gas),43.6567194,-79.39214460000001,,,0,0,0,0,1,0,0,0,0,0,1,0,0,0,0,0,0,0,0,0,0
388,598800.0,"5001 - 70 ANNIE CRAIG DRIVEToronto (Mimico), Ontario M8V0G6",W10431510,549.5,Mimico,1.0,1.0,Apartment,Central air conditioning,Forced air (Natural gas),43.6246558,-79.4791133,,,0,0,0,0,0,0,1,0,0,0,1,0,0,0,0,0,1,0,0,0,0
389,639990.0,"227 - 50 GEORGE BUTCHART DRIVEToronto (Downsview-Roding-CFB), Ontario M2K0C9",W10431503,749.5,Downsview-Roding-CFB,2.0,2.0,Apartment,Central air conditioning,Forced air (Natural gas),43.73654519999999,-79.48387869999999,,,0,0,0,1,1,1,1,0,0,0,1,0,0,0,0,0,0,0,0,0,0
390,929999.0,"305 - 5 MARINER TERRACEToronto (Waterfront Communities), Ontario M5V3V6",C10431498,949.5,Waterfront Communities C1,3.0,2.0,Apartment,Central air conditioning,Forced air (Natural gas),43.6398676,-79.39034889999999,,,0,0,1,0,1,0,1,0,1,0,0,0,0,0,0,0,0,0,0,0,0
391,1599000.0,"805 WINDERMERE AVENUEToronto (Runnymede-Bloor West Village), Ontario M6S3M5",W10431452,1750.0,Runnymede-Bloor West Village,3.0,3.5,Semi-detached,"Central air conditioning, Ventilation system",,43.6614364,-79.4844791,18.25,147 ft,0,0,0,0,0,0,0,0,0,0,0,0,0,0,0,1,0,0,0,0,0
392,499000.0,"908 - 81 WELLESLEY STREET EToronto (Church-Yonge Corridor), Ontario M4Y0C5",C10431477,549.5,Church-Yonge Corridor,1.0,1.0,Apartment,Central air conditioning,Forced air (Natural gas),43.6655855,-79.3801555,,,0,0,0,0,0,0,1,0,0,0,0,0,0,0,0,0,1,0,0,0,0
393,799000.0,"1410 - 365 CHURCH STREETToronto (Church-Yonge Corridor), Ontario M5B1H6",C10431446,749.5,Church-Yonge Corridor,2.0,2.0,Apartment,"Central air conditioning, Ventilation system",,43.6610459,-79.3787591,,,0,0,0,1,1,1,1,0,0,0,0,0,0,0,0,0,1,0,0,0,0
394,519999.0,"913 - 9 FOUR WINDS DRIVEToronto (York University Heights), Ontario M3J2S8",W10431397,949.5,York University Heights,2.0,1.0,Apartment,Window air conditioner,Radiant heat (Natural gas),43.764736,-79.4935373,,,0,0,0,0,0,0,1,0,0,0,1,0,0,0,0,0,0,0,0,0,0
395,670000.0,"320 - 36 ZORRA STREETToronto (Islington-City Centre West), Ontario M8Z0G5",W10431334,649.5,Islington-City Centre West,2.0,2.0,Apartment,Central air conditioning,Forced air (Natural gas),43.6197441,-79.5216896,,,0,0,1,1,1,0,1,0,1,0,1,0,0,0,0,0,0,0,0,0,0
396,450000.0,"2511 - 130 RIVER STREETToronto (Regent Park), Ontario M5A0R8",C10431416,549.5,Regent Park,1.0,1.0,Apartment,Central air conditioning,Forced air (Natural gas),43.6615739,-79.3586529,,,0,0,0,0,1,0,0,0,0,0,0,0,0,0,0,1,1,0,0,0,0
397,599900.0,"2407 - 24 WELLESLEY STREET WToronto (Bay Street Corridor), Ontario M4Y2X6",C10431393,649.5,Bay Street Corridor,2.0,1.0,Apartment,Central air conditioning,Forced air (Natural gas),43.6648384,-79.3860754,,,0,0,0,0,0,0,0,0,0,0,0,0,0,0,0,0,0,0,0,0,0
398,1198800.0,"2901 - 35 HAYDEN STREETToronto (Church-Yonge Corridor), Ontario M4Y3C3",C10431379,1099.5,Church-Yonge Corridor,3.0,2.0,Apartment,Central air conditioning,Heat Pump (Natural gas),43.6696226,-79.3847443,,,0,0,1,1,1,0,0,0,1,0,1,0,0,0,0,0,0,0,0,0,0
399,749900.0,"1203 - 10 QUEENS QUAY WToronto (Waterfront Communities), Ontario M5J2R9",C10431354,749.5,Waterfront Communities C1,1.0,1.0,Apartment,Central air conditioning,Forced air (Natural gas),43.6418407,-79.3757998,,,0,0,1,0,0,1,1,0,1,0,1,0,0,0,0,0,1,0,0,0,0
