link,strikethrough_price,sold_price,property_type,address,date,lat,long
/on/etobicoke-real-estate/12-harpreet-circ/home/0MWBVyZ9qOpYKemj/,"$974,913","$960,000",Detached,"12 Harpreet Circ , Etobicoke - West Humber-Clairville",2016-12-01,43.7271215,-79.6231304
/on/etobicoke-real-estate/19-holbeach-rd/home/02Zpj39LqXO7DrK8/,"$539,000","$527,500",Detached,"19 Holbeach Rd , Etobicoke - West Humber-Clairville",2014-12-13,43.7233181,-79.5831329
/on/etobicoke-real-estate/809-190-manitoba-st/home/5xLkv3Vx18QyDBNr/,"$299,000","$336,000",Condo Apt,"809 - 190 Manitoba St , Etobicoke - Mimico",2014-12-13,43.6241474,-79.491919
/on/etobicoke-real-estate/204-390-dixon-rd/home/zVwod7vVzqJ75mGN/,"$119,900","$115,000",Condo Apt,"204 - 390 Dixon Rd , Etobicoke - Kingsview Village-The Westway",2014-12-13,43.695529,-79.5578415
/on/etobicoke-real-estate/51-23-valhalla-rd/home/0Zaw5Yoa9Al7n961/,"$508,888","$485,000",Condo Townhouse,"51 - 23 Valhalla Inn Rd , Etobicoke - Islington-City Centre West",2014-12-08,43.6405257,-79.5588738
/on/etobicoke-real-estate/1518-451-the-west-mall/home/owJKR7PdMnX7XeLP/,"$139,900","$138,000",Condo Apt,"1518 - 451 The West Mall , Etobicoke - Etobicoke West Mall",2012-12-19,43.64671209999999,-79.56661419999999
/on/etobicoke-real-estate/1573-royal-york-rd/home/BDO1w3W2JA678Jg0/,"$599,900","$576,500",Detached,"1573 Royal York Rd , Etobicoke - Humber Heights",2012-12-03,43.6983778,-79.53334149999999
/on/etobicoke-real-estate/808-320-dixon-rd/home/r56k97wqoM1YKRjD/,"$44,888","$37,500",Condo Apt,"808 - 320 Dixon Rd , Etobicoke - Kingsview Village-The Westway",2012-11-20,43.6966281,-79.5522517
/on/etobicoke-real-estate/27-mattari-crt/home/dXawjy4G8ewYrR18/,"$389,900","$398,000",Freehold Townhouse,"27 Mattari Crt , Etobicoke - West Humber-Clairville",2012-11-16,43.7336062,-79.6104608
/on/etobicoke-real-estate/4-cromer-pl/home/obqB176G1mw3ZajD/,"$509,900","$490,000",Detached,"4 Cromer Pl , Etobicoke - Willowridge-Martingrove-Richview",2012-11-16,43.6883169,-79.56610970000001
/on/etobicoke-real-estate/311-rathburn-rd/home/02Zpj39ZbjgYDrK8/,"$599,900","$590,000",Detached,"311 Rathburn Rd , Etobicoke - Islington-City Centre West",2012-11-16,43.65662080000001,-79.5561322
/on/etobicoke-real-estate/18-burnhamill-pl/home/ZNkKJ3JrK8e3d4V6/,"$579,000","$580,000",Detached,"18 Burnhamill Pl , Etobicoke - Eringate-Centennial-West Deane",2012-11-13,43.6423624,-79.5834356
/on/etobicoke-real-estate/245-john-garland-blvd/home/0J6Em7bE69jyXBeq/,"$479,000","$450,000",Detached,"245 John Garland Blvd , Etobicoke - West Humber-Clairville",2012-11-13,43.732634,-79.5928952
/on/etobicoke-real-estate/54-golfwood-hts/home/5xLkv3VazKQ7DBNr/,"$769,000","$750,000",Detached,"54 Golfwood Hts , Etobicoke - Kingsview Village-The Westway",2011-12-06,43.702058,-79.5428474
/on/etobicoke-real-estate/701-2855-bloor-st-w/home/BDO1w3W19Nny8Jg0/,"$519,900","$512,000",Condo Apt,"701 - 2855 Bloor St W , Etobicoke - Stonegate-Queensway",2011-12-06,43.6496577,-79.499827
/on/etobicoke-real-estate/523a-royal-york-rd/home/weQp5yOqaVJ3d0ZE/,"$569,000","$560,000",Semi-Detached,"523A Royal York Rd , Etobicoke - Stonegate-Queensway",2011-12-06,43.62397989999999,-79.501222
/on/etobicoke-real-estate/16-glen-hollow-ave/home/MB5bO3xvKRQykWVP/,"$348,880","$345,000",Detached,"16 Glen Hollow Ave , Etobicoke - West Humber-Clairville",2010-11-25,43.7320875,-79.6050123
/on/etobicoke-real-estate/56-evans-ave/home/NAKv53Dpp0r3MnxB/,"$320,000","$341,000",Detached,"56 Evans Ave , Etobicoke - Mimico",2007-12-04,43.6206744,-79.5029971
/on/etobicoke-real-estate/1002-714-the-west-mall-ctre/home/6VLaGyGGQMvyW1ZD/,"$179,000","$169,000",Condo Apt,"1002 - 714 The West Mall Ctre , Etobicoke - Eringate-Centennial-West Deane",2007-11-30,43.6568866,-79.57077029999999
/on/etobicoke-real-estate/711-21-markbrook-lane/home/BGMnKYq8nx53w1Qr/,"$144,900","$142,000",Condo Apt,"711 - 21 Markbrook Lane , Etobicoke - Mount Olive-Silverstone-Jamestown",2007-11-26,43.7587292,-79.5875627
/on/etobicoke-real-estate/338-renforth-dr/home/VgAaOyLvzbz3GxMb/,"$424,500","$420,000",Detached,"338 Renforth Dr , Etobicoke - Etobicoke West Mall",2007-11-26,43.6425919,-79.5724652
/on/etobicoke-real-estate/41-duntroon-cres/home/6VLaGyGzMw0YW1ZD/,"$279,000","$278,000",Semi-Detached,"41 Duntroon Cres , Etobicoke - West Humber-Clairville",2004-12-30,43.7400706,-79.5976397
/on/etobicoke-real-estate/102-wedgewood-dr/home/dXawjy4JDRm3rR18/,"$409,000","$394,000",Detached,"(Address not available) , Etobicoke - Islington-City Centre West",2003-12-19,43.6309156,-79.5434841
/on/etobicoke-real-estate/45-westroyal-rd/home/b1DBW7RopkQ3qlAp/,"$549,000","$530,000",Detached,"(Address not available) , Etobicoke - Kingsview Village-The Westway",2003-12-13,43.700547,-79.55201749999999
/on/etobicoke-real-estate/toronto-75-lynngrove-ave/home/weQp5yOVgKBYd0ZE/,"$1,348,000","$1,560,000",Detached,"Toronto - 75 Lynngrove Ave , Etobicoke - Kingsway South",2019-11-15,43.6497106,-79.5190449
/on/etobicoke-real-estate/34-79-elder-ave/home/2Zpj39Ek4Rd3DrK8/,"$1,198,500","$1,170,000",Freehold Townhouse,"34 - 79 Elder Ave , Etobicoke - Long Branch",2 days ago,43.5980202,-79.5287408
/on/etobicoke-real-estate/17-strath-humber-crt/home/weQp5yOElEB3d0ZE/,"$2,289,000","$2,150,000",Detached,"17 Strath Humber Crt , Etobicoke - Edenbridge-Humber Valley",2 days ago,43.6616571,-79.5158
/on/etobicoke-real-estate/85-barrhead-cres/home/zVwod7vr4OM75mGN/,"$1,199,999","$1,140,000",Detached,"85 Barrhead Cres , Etobicoke - Rexdale-Kipling",2 days ago,43.7214642,-79.5658466
/on/etobicoke-real-estate/557-prince-edward-dr-n/home/aQmD7znldLO7J9Bo/,"$1,895,000","$1,800,000",Detached,"557 Prince Edward Dr N , Etobicoke - Kingsway South",2 days ago,43.6597888,-79.5097112
/on/etobicoke-real-estate/79-elder-ave/home/DO1w3WqVPlqy8Jg0/,"$1,198,500","$1,170,000",Freehold Townhouse,"79 ELDER AVENUE , Etobicoke - Long Branch",2 days ago,43.5980202,-79.5287408
/on/etobicoke-real-estate/1504-2045-lake-shore-blvd-w/home/JjAXw7Q1pGQ7QOzg/,"$1,099,999","$1,105,000",Condo Apt,"1504 - 2045 Lake Shore Blvd W , Etobicoke - Mimico",2 days ago,43.6313539,-79.4746095
/on/etobicoke-real-estate/802-110-marine-parade-dr/home/L4KAX7NZMV7eRPJw/,"$1,499,998","$1,400,000",Condo Apt,"802 - 110 Marine Parade Dr , Etobicoke - Mimico",2 days ago,43.6253774,-79.47817529999999
/on/etobicoke-real-estate/709-2269-lake-shore-blvd-w/home/VaD6p781Qzn3wRQr/,"$750,000","$725,000",Condo Apt,"709 - 2269 Lake shore Blvd W , Etobicoke - Mimico",3 days ago,43.6196334,-79.48429709999999
/on/etobicoke-real-estate/501-2045-lake-shore-blvd-w/home/xmZRW7nogaM3EBO9/,"$875,000","$875,000",Condo Apt,"501 - 2045 Lake Shore Blvd W , Etobicoke - Mimico",3 days ago,43.6313539,-79.4746095
/on/etobicoke-real-estate/1512-88-park-lawn-rd/home/VgAaOyL4QgmyGxMb/,"$738,800","$715,000",Condo Apt,"1512 - 88 Park Lawn Rd , Etobicoke - Mimico",3 days ago,43.6240551,-79.4857095
/on/etobicoke-real-estate/1903-36-zorra-st/home/1DBW7RDRKKxYqlAp/,"$679,900","$587,000",Condo Apt,"1903 - 36 Zorra St , Etobicoke - Islington-City Centre West",3 days ago,43.619725,-79.5218167
/on/etobicoke-real-estate/2606-20-shore-breeze-dr/home/obqB1765j9WyZajD/,"$599,990","$612,000",Condo Apt,"2606 - 20 Shore Breeze Dr , Etobicoke - Mimico",3 days ago,43.6235018,-79.47896469999999
/on/etobicoke-real-estate/2106-88-park-lawn-rd/home/JRv53KDldVqYVPW4/,"$775,000","$765,000",Condo Apt,"2106 - 88 Park Lawn Rd , Etobicoke - Mimico",3 days ago,43.6240551,-79.4857095
/on/etobicoke-real-estate/2703-10-eva-rd/home/aQmD7zn6GaO7J9Bo/,"$549,900","$546,000",Condo Apt,"2703 - 10 Eva Rd , Etobicoke - Etobicoke West Mall",3 days ago,43.6401499,-79.5629197
/on/etobicoke-real-estate/603-5-rowntree-rd/home/02Zpj39PVaV7DrK8/,"$569,000","$550,000",Condo Apt,"603 - 5 Rowntree Rd , Etobicoke - Mount Olive-Silverstone-Jamestown",3 days ago,43.7494792,-79.5807578
/on/etobicoke-real-estate/290-gamma-st/home/gJRv53K41O4YVPW4/,"$1,899,000","$1,885,000",Detached,"290 Gamma St , Etobicoke - Alderwood",3 days ago,43.6121582,-79.54120759999999
/on/etobicoke-real-estate/49-westhumber-blvd/home/1DBW7RDNBLQYqlAp/,"$959,000","$940,000",Detached,"49 Westhumber Blvd , Etobicoke - West Humber-Clairville",3 days ago,43.7267958,-79.57930660000001
/on/etobicoke-real-estate/1208-236-albion-rd/home/MB5bO3x8LXg3kWVP/,"$495,000","$455,000",Condo Apt,"1208 - 236 Albion Rd , Etobicoke - Elms-Old Rexdale",3 days ago,43.7219633,-79.54401899999999
/on/etobicoke-real-estate/322-2261-lake-shore-blvd-w/home/x9w8o3mp0WV7GKjm/,"$699,900","$680,000",Condo Apt,"322 - 2261 Lake Shore Blvd W , Etobicoke - Mimico",3 days ago,43.6198821,-79.4833294
/on/etobicoke-real-estate/36-summerfield-cres/home/bqB176WlDWB3ZajD/,"$1,100,000","$1,050,000",Detached,"36 Summerfield Cres , Etobicoke - Eringate-Centennial-West Deane",3 days ago,43.6600206,-79.5727769
/on/etobicoke-real-estate/7-145-long-branch-ave/home/0A9X3jP6k2LyvgxV/,"$899,900","$885,000",Condo Townhouse,"7 - 145 Long Branch Ave , Etobicoke - Long Branch",3 days ago,43.5967826,-79.5345561
/on/etobicoke-real-estate/317-1-michael-power-pl/home/02Zpj39LQZz7DrK8/,"$479,000","$525,000",Condo Apt,"317 - 1 Michael Power Pl , Etobicoke - Islington-City Centre West",3 days ago,43.643914,-79.5291683
/on/etobicoke-real-estate/2203-2230-lakeshore-blvd-w/home/0J6Em7b9L9gyXBeq/,"$549,000","$543,000",Condo Apt,"2203 - 2230 Lakeshore Blvd W , Etobicoke - Mimico",4 days ago,43.6215812,-79.4826669
/on/etobicoke-real-estate/204-30-old-mill-rd/home/6VLaGyG2JV1YW1ZD/,"$1,798,000","$1,700,000",Condo Apt,"204 - 30 Old Mill Rd , Etobicoke - Kingsway South",4 days ago,43.6514739,-79.4937815
/on/etobicoke-real-estate/45-meadowvale-dr/home/BGMnKYqdJMd3w1Qr/,"$2,298,000","$2,090,000",Detached,"45 Meadowvale Dr , Etobicoke - Stonegate-Queensway",4 days ago,43.645935,-79.50828299999999
/on/etobicoke-real-estate/908-2662-bloor-st-w/home/owJKR7P9l4g3XeLP/,"$998,000","$950,000",Condo Apt,"908 - 2662 Bloor St W , Etobicoke - Kingsway South",4 days ago,43.6496254,-79.4944589
/on/etobicoke-real-estate/26-bigham-cres/home/a6zqW7dn1wMY5eZE/,"$1,119,000","$1,105,000",Semi-Detached,"26 Bigham Cres , Etobicoke - Eringate-Centennial-West Deane",4 days ago,43.6624524,-79.5865903
/on/etobicoke-real-estate/94-anglesey-blvd/home/5xLkv3V1NGz7DBNr/,"$1,749,000","$1,665,000",Detached,"94 Anglesey Blvd , Etobicoke - Edenbridge-Humber Valley",4 days ago,43.6646767,-79.53166499999999
/on/etobicoke-real-estate/17-edilou-dr/home/nbq6y10a8PaYo9DA/,"$1,248,000","$1,195,000",Detached,"17 Edilou Dr , Etobicoke - Alderwood",4 days ago,43.6059856,-79.5315219
/on/etobicoke-real-estate/816-2200-lake-shore-blvd-w/home/damgL7AN1Vn3Z1MW/,"$575,000","$562,500",Condo Apt,"816 - 2200 Lake Shore Blvd W , Etobicoke - Mimico",4 days ago,43.6015351,-79.5008962
/on/etobicoke-real-estate/214-2267-lake-shore-blvd-w/home/RdXze3erjZOY8m9K/,"$648,000","$598,000",Condo Apt,"214 - 2267 Lake Shore Blvd W , Etobicoke - Mimico",4 days ago,43.6189509,-79.4830029
/on/etobicoke-real-estate/804-3-marine-parade-dr/home/mLzQ1y5Jm0q7qdeK/,"$675,000","$659,000",Condo Apt,"804 - 3 Marine Parade Dr , Etobicoke - Mimico",5 days ago,43.6302208,-79.4761374
/on/etobicoke-real-estate/423-293-the-kingsway/home/ZxwR7MwBdo2YKabB/,"$659,000","$652,000",Condo Apt,"423 - 293 The Kingsway , Etobicoke - Edenbridge-Humber Valley",5 days ago,43.66335309999999,-79.52034280000001
/on/etobicoke-real-estate/506-320-dixon-rd-w/home/knbq6y1WKVB3o9DA/,"$399,900","$383,000",Condo Apt,"506 - 320 Dixon Rd , Etobicoke - Kingsview Village-The Westway",5 days ago,43.6966281,-79.5522517
/on/etobicoke-real-estate/413-3085-bloor-st-w/home/ZNkKJ3J02xmyd4V6/,"$999,900","$1,070,000",Condo Apt,"413 - 3085 Bloor St W , Etobicoke - Stonegate-Queensway",5 days ago,43.6463224,-79.514715
/on/etobicoke-real-estate/2611-6-eva-rd/home/02Zpj39bOdqYDrK8/,"$525,000","$515,000",Condo Apt,"2611 - 6 Eva Rd , Etobicoke - Etobicoke West Mall",5 days ago,43.6406065,-79.56235989999999
/on/etobicoke-real-estate/24-wallis-cres/home/0ZxwR7MoA2xYKabB/,"$874,999","$815,000",Detached,"24 Wallis Cres , Etobicoke - Mount Olive-Silverstone-Jamestown",6 days ago,43.7542917,-79.5923466
/on/etobicoke-real-estate/405-35-fontenay-crt/home/L5VXv3lomaV7j2q8/,"$590,888","$588,000",Condo Apt,"405 - 35 Fontenay Crt , Etobicoke - Edenbridge-Humber Valley",6 days ago,43.6828185,-79.5109251
/on/etobicoke-real-estate/805-859-the-queensway/home/10QqypNNOrD3LGlV/,"$419,999","$501,000",Condo Apt,"805 - 859 The Queensway , Etobicoke - Stonegate-Queensway",6 days ago,43.6245585,-79.5097756
/on/etobicoke-real-estate/2224-5233-dundas-st-w/home/weQp5yOwNo0yd0ZE/,"$636,000","$618,888",Condo Apt,"2224 - 5233 Dundas St W , Etobicoke - Islington-City Centre West",6 days ago,43.6388516,-79.53688509999999
/on/etobicoke-real-estate/1204-61-richview-rd/home/eVbOYEpA8Jn3x2P0/,"$543,000","$515,000",Condo Apt,"1204 - 61 Richview Rd , Etobicoke - Humber Heights",6 days ago,43.684081,-79.5167385
/on/etobicoke-real-estate/16-stanley-ave/home/x9w8o3m4ldV7GKjm/,"$999,000","$1,185,000",Detached,"16 Stanley Ave , Etobicoke - Mimico",6 days ago,43.617439,-79.4888943
/on/etobicoke-real-estate/509-61-markbrook-lane/home/mLzQ1y591AjyqdeK/,"$549,000","$535,000",Condo Apt,"509 - 61 Markbrook Lane , Etobicoke - Mount Olive-Silverstone-Jamestown",6 days ago,43.7591633,-79.5851758
/on/etobicoke-real-estate/28-sixth-st/home/zVwod7vrZ8G75mGN/,"$1,130,000","$1,130,000",Detached,"28 Sixth St , Etobicoke - New Toronto",6 days ago,43.5971775,-79.50283809999999
/on/etobicoke-real-estate/518-prince-edward-dr-n/home/2Z5BX328Jz1yDar0/,"$2,499,999","$2,480,000",Detached,"518 Prince Edward Dr N , Etobicoke - Kingsway South",7 days ago,43.6582764,-79.5099144
/on/etobicoke-real-estate/27-alma-dr/home/bEDRYagLLxQ71VaB/,"$999,000","$1,195,000",Detached,"27 Alma Dr , Etobicoke - Humber Heights",7 days ago,43.6919166,-79.5197606
/on/etobicoke-real-estate/90-stephen-dr/home/jAXw7QwEJKbYQOzg/,"$1,230,000","$1,210,000",Detached,"90 Stephen Dr , Etobicoke - Stonegate-Queensway",7 days ago,43.6355023,-79.4867434
/on/etobicoke-real-estate/1005-3391-bloor-st-w/home/knbq6y1KoXB3o9DA/,"$519,000","$500,000",Condo Apt,"1005 - 3391 Bloor St , Etobicoke - Islington-City Centre West",7 days ago,43.6442533,-79.52385249999999
/on/etobicoke-real-estate/1006-110-marine-parade-dr/home/a6zqW7dzM8XY5eZE/,"$649,000","$635,000",Condo Apt,"1006 - 110 Marine Parade Dr , Etobicoke - Mimico",8 days ago,43.6253774,-79.47817529999999
/on/etobicoke-real-estate/805-5101-dundas-st-w/home/a6zqW7d0Prv75eZE/,"$589,900","$570,000",Condo Apt,"805 - 5101 Dundas St W , Etobicoke - Islington-City Centre West",8 days ago,43.6449812,-79.5319617
/on/etobicoke-real-estate/32-windsor-rd/home/1DBW7RDBDZ1YqlAp/,"$1,280,000","$1,270,000",Detached,"32 Windsor Rd , Etobicoke - Kingsview Village-The Westway",8 days ago,43.69996709999999,-79.55692169999999
/on/etobicoke-real-estate/24-duncairn-dr/home/obqB176ZZgw7ZajD/,"$1,399,900","$1,300,000",Detached,"24 Duncairn Dr , Etobicoke - Princess-Rosethorn",8 days ago,43.66078,-79.5538243
/on/etobicoke-real-estate/23-augustus-terr/home/XeEn7X6DKE0YrPo8/,"$1,288,000","$1,285,000",Condo Townhouse,"23 AUGUSTUS Terr , Etobicoke - Islington-City Centre West",9 days ago,43.63298,-79.52037
/on/etobicoke-real-estate/914-1185-the-queensway-ave/home/JjAXw7QaB6M7QOzg/,"$534,900","$530,000",Condo Apt,"914 - 1185 The Queensway , Etobicoke - Islington-City Centre West",9 days ago,43.6218008,-79.5215288
/on/etobicoke-real-estate/2908-59-annie-craig-dr/home/6VLaGyGqZG3W1ZDM/,"$949,900","$940,000",Condo Apt,"2908 - 59 Annie Craig Dr , Etobicoke - Mimico",9 days ago,43.6249692,-79.47822099999999
/on/etobicoke-real-estate/804-2045-lake-shore-blvd-w/home/dXze3eKPO9ky8m9K/,"$1,198,000","$1,102,000",Condo Apt,"804 - 2045 Lake Shore Blvd W , Etobicoke - Mimico",9 days ago,43.6313539,-79.4746095
/on/etobicoke-real-estate/21-115-long-branch-ave/home/mLzQ1y5zkgw7qdeK/,"$799,000","$798,000",Condo Townhouse,"21 - 115 Long Branch Ave , Etobicoke - Long Branch",9 days ago,43.5959645,-79.5341066
/on/etobicoke-real-estate/2001-251-manitoba-st/home/VaD6p78r22zYwRQr/,"$549,900","$540,000",Condo Apt,"2001 - 251 Manitoba St , Etobicoke - Mimico",9 days ago,43.6238372,-79.4893647
/on/etobicoke-real-estate/909-2901-kipling-ave/home/owJKR7PWEz9yXeLP/,"$498,888","$520,000",Condo Apt,"909 - 2901 Kipling Ave , Etobicoke - Mount Olive-Silverstone-Jamestown",9 days ago,43.7581999,-79.5885005
/on/etobicoke-real-estate/33-vaudeville-dr/home/bEDRYag2dBv71VaB/,"$1,549,900","$1,500,000",Semi-Detached,"33 Vaudeville Dr , Etobicoke - Alderwood",9 days ago,43.609759,-79.5329721
/on/etobicoke-real-estate/4503-20-shore-breeze-dr-w/home/JjAXw7QmmXa7QOzg/,"$799,999","$930,000",Condo Apt,"4503 - 20 Shore Breeze Dr , Etobicoke - Mimico",9 days ago,43.6235018,-79.47896469999999
/on/etobicoke-real-estate/12-broadfield-dr/home/9w8o3m5JJOv3GKjm/,"$1,349,000","$1,330,000",Detached,"12 Broadfield Dr , Etobicoke - Markland Wood",9 days ago,43.6276816,-79.57520819999999
/on/etobicoke-real-estate/76-lobo-mews/home/N0A9X3jwNPKYvgxV/,"$1,299,000","$1,287,000",Freehold Townhouse,"76 Lobo Mews , Etobicoke - Islington-City Centre West",9 days ago,43.6389647,-79.52593209999999
/on/etobicoke-real-estate/611-11-wincott-dr/home/dXawjy4wVdmYrR18/,"$499,888","$485,000",Condo Apt,"611 - 11 Wincott Dr , Etobicoke - Kingsview Village-The Westway",9 days ago,43.6953232,-79.550889
/on/etobicoke-real-estate/114-saskatoon-dr/home/dXawjy4gnEbYrR18/,"$1,549,900","$1,500,000",Detached,"114 Saskatoon Dr , Etobicoke - Kingsview Village-The Westway",9 days ago,43.6931057,-79.5444062
/on/etobicoke-real-estate/206-20-brin-dr/home/BDO1w3WQPqny8Jg0/,"$999,999","$930,000",Condo Apt,"206 - 20 Brin Dr , Etobicoke - Edenbridge-Humber Valley",9 days ago,43.6614939,-79.5118181
/on/etobicoke-real-estate/1305-36-park-lawn-rd/home/dXawjy4k9pbYrR18/,"$789,900","$735,000",Condo Apt,"1305 - 36 Park Lawn Rd , Etobicoke - Mimico",10 days ago,43.6235942,-79.4845177
/on/etobicoke-real-estate/14-95-eastwood-park-gdns/home/DnM697kEg6OYbmwe/,"$819,000","$814,000",Condo Townhouse,"14 - 95 Eastwood Park Gdns , Etobicoke - Long Branch",10 days ago,43.5947061,-79.5351847
/on/etobicoke-real-estate/22-queen-anne-rd/home/DnM697k9dJQYbmwe/,"$2,649,000","$2,750,000",Detached,"22 Queen Anne Rd , Etobicoke - Kingsway South",10 days ago,43.6569239,-79.50618999999999
/on/etobicoke-real-estate/801-17-michael-power-pl/home/JjAXw7QeZm7QOzgm/,"$499,000","$488,000",Condo Apt,"801 - 17 Michael Power Pl , Etobicoke - Islington-City Centre West",10 days ago,43.6454798,-79.5303831
/on/etobicoke-real-estate/26-breadner-dr/home/10QqypNPpdV3LGlV/,"$1,149,000","$1,112,000",Detached,"26 Breadner Dr , Etobicoke - Willowridge-Martingrove-Richview",10 days ago,43.6915868,-79.5597241
/on/etobicoke-real-estate/703-335-mill-rd/home/xmZRW7nbVM17EBO9/,"$450,000","$465,100",Condo Apt,"703 - 335 Mill Rd , Etobicoke - Eringate-Centennial-West Deane",10 days ago,43.6399968,-79.5845295
/on/etobicoke-real-estate/4-lloyd-manor-rd/home/eVbOYEp0ANV3x2P0/,"$1,098,000","$1,006,000",Detached,"4 Lloyd Manor Rd , Etobicoke - Princess-Rosethorn",10 days ago,43.6593446,-79.54697569999999
/on/etobicoke-real-estate/115-tenth-st/home/xmZRW7nw5w13EBO9/,"$1,499,000","$1,600,000",Triplex,"115 Tenth St , Etobicoke - New Toronto",10 days ago,43.599631,-79.5082049
/on/etobicoke-real-estate/506-7-michael-power-pl/home/ZEXrx30Wqvp7OklN/,"$549,900","$542,500",Condo Apt,"506 - 7 Michael Power Pl , Etobicoke - Islington-City Centre West",10 days ago,43.6445123,-79.52937969999999
/on/etobicoke-real-estate/211-25-neighbourhood-lane/home/ZEXrx30AEgZYOklN/,"$535,990","$535,000",Condo Apt,"211 - 25 Neighbourhood Lane , Etobicoke - Stonegate-Queensway",10 days ago,43.6382223,-79.48922499999999
/on/etobicoke-real-estate/97-willingdon-blvd/home/oK8OgYB48O47JmG2/,"$2,899,000","$2,790,000",Detached,"97 Willingdon Blvd , Etobicoke - Kingsway South",10 days ago,43.6530783,-79.51218159999999
/on/etobicoke-real-estate/2605-380-dixon-rd/home/2Z5BX322BK83Dar0/,"$449,000","$445,000",Condo Apt,"2605 - 380 Dixon Rd , Etobicoke - Kingsview Village-The Westway",10 days ago,43.6949961,-79.5567885
/on/etobicoke-real-estate/811-2261-lakeshore-blvd-w/home/PXRla7gzDq9yjEvL/,"$699,900","$728,917",Condo Apt,"811 - 2261 Lakeshore Blvd W , Etobicoke - Mimico",11 days ago,43.6198821,-79.4833294
/on/etobicoke-real-estate/1600-1-aberfoyle-cres/home/gAaOyL8NvDZyGxMb/,"$1,599,000","$1,515,000",Condo Apt,"1600 - 1 Aberfoyle Cres , Etobicoke - Islington-City Centre West",11 days ago,43.6458046,-79.5197835
/on/etobicoke-real-estate/7-tranquil-dr/home/B5bO3xXq26p3kWVP/,"$1,299,900","$1,260,000",Detached,"7 Tranquil Dr , Etobicoke - Etobicoke West Mall",11 days ago,43.64181199999999,-79.5727948
/on/etobicoke-real-estate/13-fourteenth-st/home/kbEDRYaX9Mv31VaB/,"$919,900","$899,000",Detached,"13 Fourteenth St , Etobicoke - New Toronto",11 days ago,43.6003689,-79.5131911
/on/etobicoke-real-estate/5j-brussells-st/home/weQp5yON8agYd0ZE/,"$1,199,900","$1,400,000",Freehold Townhouse,"5J Brussels St , Etobicoke - Stonegate-Queensway",11 days ago,43.6265536,-79.4911612
/on/etobicoke-real-estate/809-5101-dundas-st-w/home/Z5BX32zwJEQ3Dar0/,"$569,000","$545,000",Condo Apt,"809 - 5101 Dundas St W , Etobicoke - Islington-City Centre West",11 days ago,43.6449812,-79.5319617
/on/etobicoke-real-estate/40-exmoor-dr/home/BDO1w3WNwKO78Jg0/,"$1,458,000","$1,410,000",Detached,"40 Exmoor Dr , Etobicoke - Long Branch",11 days ago,43.5925118,-79.5437737
/on/etobicoke-real-estate/38-kingdom-st/home/MB5bO3xEbJWYkWVP/,"$1,788,000","$1,772,000",Detached,"38 Kingdom St , Etobicoke - Humber Heights",11 days ago,43.6956877,-79.5173794
/on/etobicoke-real-estate/4-treeview-dr/home/mLzQ1y5EWW4yqdeK/,"$1,685,000","$1,630,000",Detached,"4 Treeview Dr , Etobicoke - Alderwood",11 days ago,43.6049483,-79.53304179999999
/on/etobicoke-real-estate/57-lake-shore-dr/home/EeVbOYEqxxnYx2P0/,"$1,695,000","$1,800,000",Semi-Detached,"57 Lake Shore Dr , Etobicoke - New Toronto",11 days ago,43.5969719,-79.5003339
/on/etobicoke-real-estate/1416-islington-ave/home/L5VXv3leMKLYj2q8/,"$1,249,000","$1,254,000",Detached,"1416 Islington Ave , Etobicoke - Princess-Rosethorn",11 days ago,43.6566053,-79.52898379999999
/on/etobicoke-real-estate/81-615-rathburn-rd-e/home/2Z5BX32WnQYDar0z/,"$849,000","$820,000",Condo Townhouse,"81 - 615 Rathburn Rd , Etobicoke - Eringate-Centennial-West Deane",11 days ago,43.6467064,-79.5871102
/on/etobicoke-real-estate/56-636-evans-ave/home/weQp5yO4vj07d0ZE/,"$999,000","$999,000",Condo Townhouse,"56 - 636 Evans Ave , Etobicoke - Alderwood",11 days ago,43.6103913,-79.5513204
/on/etobicoke-real-estate/701-15-la-rose-ave/home/jAXw7Qw1k6MYQOzg/,"$569,000","$569,000",Condo Apt,"701 - 15 La Rose Ave , Etobicoke - Humber Heights",11 days ago,43.68634,-79.51419
/on/etobicoke-real-estate/13-hawthorne-rd/home/VLaGyG2JPnBYW1ZD/,"$999,000","$1,276,000",Detached,"13 Hawthorne Rd , Etobicoke - Kingsview Village-The Westway",12 days ago,43.6914842,-79.55507639999999
/on/etobicoke-real-estate/3-humber-ridge-dr/home/EXrx30XK25p3OklN/,"$1,899,000","$1,850,000",Detached,"3 Humber Ridge Dr , Etobicoke - Stonegate-Queensway",12 days ago,43.639881,-79.494587
/on/etobicoke-real-estate/20-braecrest-ave/home/xLkv3V9aXAx7DBNr/,"$1,249,000","$1,220,000",Detached,"20 Braecrest Ave , Etobicoke - Humber Heights",12 days ago,43.6963257,-79.5287182
/on/etobicoke-real-estate/41a-algoma-st/home/J6Em7bnaE9n7XBeq/,"$995,000","$950,000",Detached,"41A Algoma St , Etobicoke - Mimico",12 days ago,43.6216654,-79.4953679
/on/etobicoke-real-estate/56-warwood-rd/home/RdXze3e6GmOY8m9K/,"$4,398,000","$4,180,000",Detached,"56 Warwood Rd , Etobicoke - Islington-City Centre West",12 days ago,43.6508182,-79.5568366
/on/etobicoke-real-estate/218-5-richgrove-dr/home/0Zaw5YojLW03n961/,"$549,000","$644,000",Condo Townhouse,"218 - 5 Richgrove Dr , Etobicoke - Willowridge-Martingrove-Richview",12 days ago,43.6764569,-79.5648667
/on/etobicoke-real-estate/534-200-manitoba-st/home/xmZRW7nVmR7EBO9J/,"$590,000","$585,000",Condo Apt,"534 - 200 Manitoba St , Etobicoke - Mimico",13 days ago,43.6244555,-79.4910182
/on/etobicoke-real-estate/304-7-mabelle-ave/home/ZxwR7MwJkQPYKabB/,"$584,990","$572,000",Condo Apt,"304 - 7 Mabelle Ave , Etobicoke - Islington-City Centre West",13 days ago,43.6464782,-79.5254652
/on/etobicoke-real-estate/1706-710-humberwood-blvd/home/zVwod7vOkVr35mGN/,"$549,900","$530,000",Condo Apt,"1706 - 710 Humberwood Blvd , Etobicoke - West Humber-Clairville",13 days ago,43.7247822,-79.6160393
/on/etobicoke-real-estate/35-moynes-ave/home/VgAaOyLQP9b7GxMb/,"$2,190,000","$2,100,000",Detached,"35 Moynes Ave , Etobicoke - Stonegate-Queensway",13 days ago,43.6293283,-79.49919
/on/etobicoke-real-estate/166-the-kingsway-ave/home/JjAXw7QwX8kYQOzg/,"$2,988,000","$2,900,000",Detached,"166 The Kingsway , Etobicoke - Kingsway South",13 days ago,43.65606469999999,-79.5143017
/on/etobicoke-real-estate/15-braddock-rd/home/DnM697kBOgoybmwe/,"$959,900","$989,000",Detached,"15 Braddock Rd , Etobicoke - West Humber-Clairville",13 days ago,43.71949,-79.58435999999999
/on/etobicoke-real-estate/2115-320-dixon-rd/home/mLzQ1y5olzj3qdeK/,"$399,888","$390,000",Condo Apt,"2115 - 320 Dixon Rd , Etobicoke - Kingsview Village-The Westway",14 days ago,43.6966281,-79.5522517
/on/etobicoke-real-estate/211-350-mill-rd/home/02Zpj39nnogYDrK8/,"$789,000","$790,000",Condo Apt,"211 - 350 Mill Rd , Etobicoke - Eringate-Centennial-West Deane",14 days ago,43.6404631,-79.585895
/on/etobicoke-real-estate/50-st-andrews-blvd/home/bEDRYagLna571VaB/,"$1,199,900","$1,300,000",Detached,"50 St Andrews Blvd , Etobicoke - Kingsview Village-The Westway",14 days ago,43.7001304,-79.55492559999999
/on/etobicoke-real-estate/25-herne-hill/home/BGMnKYqLj8K3w1Qr/,"$3,889,000","$3,662,500",Detached,"25 Herne Hill , Etobicoke - Edenbridge-Humber Valley",14 days ago,43.6579678,-79.5246444
/on/etobicoke-real-estate/809-4208-dundas-st-w/home/Vwod7vrXAbG75mGN/,"$636,500","$622,500",Condo Apt,"809 - 4208 Dundas St W , Etobicoke - Edenbridge-Humber Valley",14 days ago,43.6606066,-79.5117534
/on/etobicoke-real-estate/32-highgate-rd/home/2Z5BX32zORl3Dar0/,"$2,695,000","$2,831,000",Detached,"32 Highgate Rd , Etobicoke - Kingsway South",15 days ago,43.6523642,-79.5176127
/on/etobicoke-real-estate/132-50-carnation-ave/home/DO1w3Wqrxooy8Jg0/,"$779,000","$725,000",Condo Townhouse,"132 - 50 Carnation Ave , Etobicoke - Long Branch",16 days ago,43.5933961,-79.5382607
/on/etobicoke-real-estate/710-2855-bloor-st-w/home/damgL7APpQbyZ1MW/,"$1,845,000","$1,850,000",Condo Apt,"710 - 2855 Bloor St W , Etobicoke - Stonegate-Queensway",16 days ago,43.6496577,-79.499827
/on/etobicoke-real-estate/21-golfcrest-rd/home/MB5bO3xWlNQ7kWVP/,"$4,898,000","$4,600,000",Detached,"21 Golfcrest Rd , Etobicoke - Princess-Rosethorn",16 days ago,43.6568222,-79.53182249999999
/on/etobicoke-real-estate/111-third-st/home/510QqypEzv17LGlV/,"$999,988","$960,000",Semi-Detached,"111 Third St , Etobicoke - New Toronto",16 days ago,43.6038422,-79.5013756
/on/etobicoke-real-estate/25-finchley-rd/home/NAKv53DDmOk3MnxB/,"$3,450,000","$3,370,000",Detached,"25 Finchley Rd , Etobicoke - Edenbridge-Humber Valley",16 days ago,43.6576892,-79.5263356
/on/etobicoke-real-estate/3503-2200-lake-shore-blvd-w/home/knbq6y12GB97o9DA/,"$555,000","$555,000",Condo Apt,"3503 - 2200 Lake Shore Blvd W , Etobicoke - Mimico",16 days ago,43.6015351,-79.5008962
/on/etobicoke-real-estate/950-25-viking-lane-w/home/jJKdOYrBrDnY54lW/,"$689,999","$650,000",Condo Apt,"950 - 25 Viking Lane , Etobicoke - Islington-City Centre West",16 days ago,43.6383246,-79.53595299999999
/on/etobicoke-real-estate/107-400-the-east-mall/home/0Zaw5YoGrM2Yn961/,"$499,888","$475,000",Condo Townhouse,"107 - 400 The East Mall Ave , Etobicoke - Islington-City Centre West",16 days ago,43.6465478,-79.5605635
/on/etobicoke-real-estate/20-115-long-branch-ave/home/gJRv53Kkxlx3VPW4/,"$775,000","$790,000",Condo Townhouse,"20 - 115 Long Branch Ave , Etobicoke - Long Branch",16 days ago,43.5959645,-79.5341066
/on/etobicoke-real-estate/703-1-rowntree-rd/home/DnM697kPk6Q3bmwe/,"$555,000","$580,000",Condo Apt,"703 - 1 ROWNTREE Rd , Etobicoke - Mount Olive-Silverstone-Jamestown",16 days ago,43.7512238,-79.5830043
/on/etobicoke-real-estate/7-greystone-crt/home/mLzQ1y59mZEyqdeK/,"$1,375,000","$1,320,000",Freehold Townhouse,"7 Greystone Crt , Etobicoke - Mimico",16 days ago,43.6203298,-79.4857455
/on/etobicoke-real-estate/26-boxwood-rd/home/0A9X3jPrxGKyvgxV/,"$1,550,000","$1,428,000",Detached,"26 Boxwood Rd , Etobicoke - Markland Wood",16 days ago,43.6358036,-79.5783663
/on/etobicoke-real-estate/521-the-kingsway/home/owJKR7PrLK1YXeLP/,"$2,438,000","$2,402,000",Detached,"521 The Kingsway , Etobicoke - Princess-Rosethorn",16 days ago,43.6727677,-79.5439177
/on/etobicoke-real-estate/590-horner-ave/home/0ZxwR7MEXgx7KabB/,"$1,600,000","$1,560,000",Detached,"590 Horner Ave , Etobicoke - Alderwood",16 days ago,43.6002438,-79.5525737
/on/etobicoke-real-estate/501-9-valhalla-inn-rd/home/4KAX7NO8OzO3eRPJ/,"$549,000","$545,000",Condo Apt,"501 - 9 Valhalla Inn Rd , Etobicoke - Islington-City Centre West",16 days ago,43.6398779,-79.5593676
/on/etobicoke-real-estate/2201-299-mill-rd/home/jJKdOYrLklj754lW/,"$769,000","$757,000",Condo Apt,"2201 - 299 Mill Rd , Etobicoke - Markland Wood",17 days ago,43.6384555,-79.58207519999999
/on/etobicoke-real-estate/727-700-humberwood-blvd/home/owJKR7P6q2pYXeLP/,"$629,000","$595,000",Condo Apt,"727 - 700 Humberwood Blvd , Etobicoke - West Humber-Clairville",17 days ago,43.7247099,-79.6166527
/on/etobicoke-real-estate/1613-370-dixon-rd/home/damgL7A8mRlyZ1MW/,"$489,000","$480,000",Condo Apt,"1613 - 370 Dixon Rd , Etobicoke - Kingsview Village-The Westway",17 days ago,43.69595169999999,-79.5561523
/on/etobicoke-real-estate/1408-80-marine-parade-dr/home/BDO1w3W1xVjy8Jg0/,"$570,000","$570,000",Condo Apt,"1408 - 80 Marine Parade Dr , Etobicoke - Mimico",17 days ago,43.6261946,-79.47738609999999
/on/etobicoke-real-estate/705-44-longbourne-dr/home/mZRW7nae6aPyEBO9/,"$459,900","$450,000",Condo Apt,"705 - 44 Longbourne Dr , Etobicoke - Willowridge-Martingrove-Richview",17 days ago,43.6807361,-79.5689807
/on/etobicoke-real-estate/1206-1-rowntree-rd/home/BXeEn7X1gG3rPo8d/,"$699,999","$690,000",Condo Apt,"1206 - 1 Rowntree Rd , Etobicoke - Mount Olive-Silverstone-Jamestown",17 days ago,43.7512238,-79.5830043
/on/etobicoke-real-estate/407-5-michael-power-pl/home/BXeEn7Xr5bGYrPo8/,"$595,000","$582,000",Condo Apt,"407 - 5 Michael Power Pl , Etobicoke - Islington-City Centre West",17 days ago,43.6448314,-79.52932910000001
/on/etobicoke-real-estate/3306-33-shore-breeze-dr/home/JjAXw7QDJeayQOzg/,"$459,000","$430,000",Condo Apt,"3306 - 33 Shore Breeze Dr , Etobicoke - Mimico",17 days ago,43.6240074,-79.4792379
/on/etobicoke-real-estate/593-oxford-st/home/2Z5BX32g09lYDar0/,"$1,150,000","$1,110,000",Detached,"593 Oxford St , Etobicoke - Mimico",17 days ago,43.6232,-79.4966893
/on/etobicoke-real-estate/24-elmcrest-rd/home/NkKJ3Jda1dWyd4V6/,"$1,750,000","$1,720,000",Detached,"24 Elmcrest Rd , Etobicoke - Eringate-Centennial-West Deane",17 days ago,43.6437531,-79.5832902
/on/etobicoke-real-estate/210-110-marine-parade-dr/home/VgAaOyL612A3GxMb/,"$629,000","$605,000",Condo Apt,"210 - 110 Marine Parade Dr , Etobicoke - Mimico",17 days ago,43.6253774,-79.47817529999999
/on/etobicoke-real-estate/29-twenty-second-st/home/L5VXv3lkkQN7j2q8/,"$1,055,000","$1,045,000",Detached,"29 Twenty Second St , Etobicoke - New Toronto",17 days ago,43.5984677,-79.5216129
/on/etobicoke-real-estate/b14-245-dalesford-rd/home/RdXze3ePWro78m9K/,"$799,000","$795,000",Condo Apt,"B14 - 245 Dalesford Rd , Etobicoke - Stonegate-Queensway",17 days ago,43.6261584,-79.49085699999999
/on/etobicoke-real-estate/601-10-eva-rd/home/xLkv3V9XppZ7DBNr/,"$680,000","$790,000",Condo Apt,"601 - 10 Eva Rd , Etobicoke - Etobicoke West Mall",18 days ago,43.6401499,-79.5629197
/on/etobicoke-real-estate/96-lexington-ave/home/GMnKYqpkZ1B3w1Qr/,"$999,999","$995,999",Detached,"96 Lexington Ave , Etobicoke - Mount Olive-Silverstone-Jamestown",18 days ago,43.7468611,-79.6020789
/on/etobicoke-real-estate/8-markburn-crt/home/PXRla7gDnw63jEvL/,"$1,065,000","$1,039,400",Semi-Detached,"8 Markburn Crt , Etobicoke - Eringate-Centennial-West Deane",18 days ago,43.6404952,-79.5839926
/on/etobicoke-real-estate/39-hackmore-ave/home/XRla7gxQDz63jEvL/,"$999,900","$944,000",Detached,"39 Hackmore Ave , Etobicoke - Elms-Old Rexdale",18 days ago,43.7259473,-79.55931799999999
/on/etobicoke-real-estate/1804-2240-lakeshore-blvd-w/home/ZEXrx30peBl3OklN/,"$814,900","$798,000",Condo Apt,"1804 - 2240 Lakeshore Blvd W , Etobicoke - Mimico",18 days ago,43.6210927,-79.483356
/on/etobicoke-real-estate/401-130-widdicombe-hill-blvd/home/damgL7AVJEp3Z1MW/,"$699,900","$688,500",Condo Townhouse,"401 - 130 Widdicombe Hill Blvd , Etobicoke - Willowridge-Martingrove-Richview",18 days ago,43.6759932,-79.5581928
/on/etobicoke-real-estate/29-cromer-pl/home/L4KAX7NrzXr7eRPJ/,"$1,338,888","$1,315,000",Detached,"29 Cromer Pl , Etobicoke - Willowridge-Martingrove-Richview",18 days ago,43.68719859999999,-79.5675739
/on/etobicoke-real-estate/24-winsdale-rd/home/L5VXv3l9rkOYj2q8/,"$1,679,000","$1,600,000",Detached,"24 Winsdale Rd , Etobicoke - Markland Wood",19 days ago,43.6367325,-79.5782761
/on/etobicoke-real-estate/1919-5233-dundas-st-w/home/kbEDRYaGj5b71VaB/,"$498,000","$495,000",Condo Apt,"1919 - 5233 Dundas St W , Etobicoke - Islington-City Centre West",19 days ago,43.6388516,-79.53688509999999
/on/etobicoke-real-estate/4-markhall-ave/home/ZNkKJ3JNKZ3d4V6q/,"$1,299,000","$1,220,000",Detached,"4 Markhall Ave , Etobicoke - Islington-City Centre West",19 days ago,43.6327977,-79.548062
/on/etobicoke-real-estate/126-251-manitoba-st-s/home/Vwod7vrRz4975mGN/,"$724,888","$723,000",Condo Townhouse,"126 - 251 Manitoba St , Etobicoke - Mimico",19 days ago,43.6238372,-79.4893647
/on/etobicoke-real-estate/704-61-richview-rd/home/6zqW7dGAQ61y5eZE/,"$499,000","$499,000",Condo Apt,"704 - 61 Richview Rd , Etobicoke - Humber Heights",19 days ago,43.684081,-79.5167385
/on/etobicoke-real-estate/39-savona-dr/home/r56k97wW6RO7KRjD/,"$969,999","$921,000",Detached,"39 Savona Dr , Etobicoke - Alderwood",19 days ago,43.6065031,-79.5529165
/on/etobicoke-real-estate/114-1185-the-queensway-ave/home/owJKR7PWkMpyXeLP/,"$599,000","$586,000",Condo Apt,"114 - 1185 The Queensway , Etobicoke - Islington-City Centre West",19 days ago,43.6218008,-79.5215288
/on/etobicoke-real-estate/19-shipley-rd/home/wJKR7P8Wm897XeLP/,"$1,148,888","$1,140,000",Detached,"19 Shipley Rd , Etobicoke - Willowridge-Martingrove-Richview",19 days ago,43.6841427,-79.5586453
/on/etobicoke-real-estate/702-3391-bloor-st-w/home/jJKdOYrBbPjY54lW/,"$519,900","$495,000",Condo Apt,"702 - 3391 Bloor St W , Etobicoke - Islington-City Centre West",19 days ago,43.6442533,-79.52385249999999
/on/etobicoke-real-estate/214-1-neighbourhood-lane/home/BDO1w3WWk2l38Jg0/,"$599,900","$650,000",Condo Apt,"214 - 1 Neighbourhood Lane , Etobicoke - Stonegate-Queensway",19 days ago,43.6377286,-79.4876051
/on/etobicoke-real-estate/9-kingsgarden-rd/home/02Zpj39kDMgyDrK8/,"$3,348,000","$3,305,000",Detached,"9 Kingsgarden Rd , Etobicoke - Kingsway South",19 days ago,43.6555092,-79.50582849999999
/on/etobicoke-real-estate/43-millburn-dr/home/6VLaGyG9XjA3W1ZD/,"$2,699,000","$2,845,000",Detached,"43 Millburn Dr , Etobicoke - Eringate-Centennial-West Deane",19 days ago,43.6632739,-79.5626386
/on/etobicoke-real-estate/1204-1320-islington-ave/home/gaQmD7zOL4A3J9Bo/,"$799,000","$770,000",Condo Apt,"1204 - 1320 Islington Ave , Etobicoke - Islington-City Centre West",20 days ago,43.6500087,-79.5264893
/on/etobicoke-real-estate/310-236-albion-rd/home/JRv53KDNAM4YVPW4/,"$490,900","$485,000",Condo Apt,"310 - 236 Albion Rd , Etobicoke - Elms-Old Rexdale",20 days ago,43.7219633,-79.54401899999999
/on/etobicoke-real-estate/1609-3-marine-parade-dr/home/0Zaw5Yorqqp3n961/,"$409,000","$409,000",Condo Apt,"1609 - 3 Marine Parade Dr , Etobicoke - Mimico",20 days ago,43.6302208,-79.4761374
/on/etobicoke-real-estate/204-2901-kipling-ave/home/obqB176w5MB3ZajD/,"$499,000","$500,600",Condo Apt,"204 - 2901 Kipling Ave , Etobicoke - Mount Olive-Silverstone-Jamestown",20 days ago,43.7581999,-79.5885005
/on/etobicoke-real-estate/15-eastglen-cres/home/0Zaw5YoeAAq7n961/,"$2,577,000","$2,300,000",Detached,"15 Eastglen Cres , Etobicoke - Islington-City Centre West",20 days ago,43.64922869999999,-79.55075529999999
/on/etobicoke-real-estate/1015-710-humberwood-blvd/home/xLkv3V9ddNx7DBNr/,"$485,000","$435,000",Condo Apt,"1015 - 710 Humberwood Blvd , Etobicoke - West Humber-Clairville",20 days ago,43.7247822,-79.6160393
/on/etobicoke-real-estate/98-30-fieldway-rd/home/BDO1w3WxgjOY8Jg0/,"$699,900","$680,000",Condo Townhouse,"98 - 30 Fieldway Rd , Etobicoke - Islington-City Centre West",20 days ago,43.6420693,-79.52820489999999
/on/etobicoke-real-estate/889-royal-york-rd/home/r56k97wJl4eyKRjD/,"$1,629,000","$1,565,000",Detached,"889 Royal York Rd , Etobicoke - Stonegate-Queensway",20 days ago,43.64487099999999,-79.51004770000002
/on/etobicoke-real-estate/3005-2200-lakeshore-blvd-w/home/Z5BX32zBq9D3Dar0/,"$549,900","$520,000",Condo Apt,"3005 - 2200 Lakeshore Blvd W , Etobicoke - Mimico",20 days ago,43.6015351,-79.5008962
/on/etobicoke-real-estate/429-165-legion-rd-n/home/L5VXv3l0qLp3j2q8/,"$499,000","$591,000",Condo Apt,"429 - 165 Legion Rd N , Etobicoke - Mimico",20 days ago,43.6241214,-79.48801
/on/etobicoke-real-estate/56-grierson-rd/home/L4KAX7NdEXVYeRPJ/,"$799,000","$890,000",Detached,"56 Grierson Rd , Etobicoke - Elms-Old Rexdale",20 days ago,43.7151886,-79.5458917
/on/etobicoke-real-estate/150-north-carson-st/home/dXze3eKaKeey8m9K/,"$1,099,000","$1,095,000",Detached,"150 North Carson St , Etobicoke - Alderwood",20 days ago,43.6089958,-79.5374231
/on/etobicoke-real-estate/8-12-applewood-lane/home/gAaOyL8NKoPyGxMb/,"$927,500","$895,000",Condo Townhouse,"8 - 12 Applewood Lane , Etobicoke - Etobicoke West Mall",20 days ago,43.6504328,-79.5675693
/on/etobicoke-real-estate/43-clearside-pl/home/ZNkKJ3J9bLe7d4V6/,"$1,699,900","$1,620,000",Detached,"43 Clearside Pl , Etobicoke - Markland Wood",21 days ago,43.6370923,-79.57272239999999
/on/etobicoke-real-estate/6-jasmine-ave/home/b1DBW7RDjkEYqlAp/,"$1,395,000","$1,375,000",Detached,"6 Jasmine Ave , Etobicoke - Long Branch",21 days ago,43.5928156,-79.52426299999999
/on/etobicoke-real-estate/79-ruby-lang-lane/home/xmZRW7nZeEM7EBO9/,"$1,299,000","$1,266,250",Freehold Townhouse,"79 Ruby Lang Lane , Etobicoke - Mimico",21 days ago,43.6204908,-79.5079516
/on/etobicoke-real-estate/5i-brussels-st/home/BXeEn7XvbQDYrPo8/,"$1,349,000","$1,300,000",Freehold Townhouse,"5i Brussels St , Etobicoke - Stonegate-Queensway",21 days ago,43.6265995,-79.4911929
/on/etobicoke-real-estate/122-willowridge-rd/home/AKv53DDjMX53MnxB/,"$899,000","$860,000",Semi-Detached,"122 Willowridge Rd , Etobicoke - Willowridge-Martingrove-Richview",21 days ago,43.6769103,-79.5739035
/on/etobicoke-real-estate/5-wray-crt/home/0J6Em7bkapB3XBeq/,"$799,990","$825,500",Semi-Detached,"5 Wray Crt , Etobicoke - Mount Olive-Silverstone-Jamestown",21 days ago,43.7550397,-79.5931547
/on/etobicoke-real-estate/7-130-tenth-st/home/dXawjy4N0B63rR18/,"$919,900","$880,000",Condo Townhouse,"7 - 130 Tenth St , Etobicoke - New Toronto",21 days ago,43.6003361,-79.509118
/on/etobicoke-real-estate/2102-3-rowntree-rd/home/damgL7AxL5myZ1MW/,"$499,900","$512,000",Condo Apt,"2102 - 3 Rowntree Rd , Etobicoke - Mount Olive-Silverstone-Jamestown",22 days ago,43.7496261,-79.5809846
/on/etobicoke-real-estate/3-laurelwood-cres/home/obqB176AXzdyZajD/,"$1,548,000","$1,480,000",Detached,"3 Laurelwood Cres , Etobicoke - Willowridge-Martingrove-Richview",22 days ago,43.6849895,-79.53937619999999
/on/etobicoke-real-estate/104-third-st/home/mZRW7narBRVyEBO9/,"$899,900","$911,000",Semi-Detached,"104 Third St , Etobicoke - New Toronto",22 days ago,43.6035282,-79.5017929
/on/etobicoke-real-estate/3-mercury-rd/home/xLkv3V9peKp7DBNr/,"$1,099,888","$1,050,000",Detached,"3 Mercury Rd , Etobicoke - West Humber-Clairville",22 days ago,43.7199256,-79.58924569999999
/on/etobicoke-real-estate/804-38-fontenay-crt/home/JKdOYrGr22by54lW/,"$669,900","$650,000",Condo Apt,"804 - 38 Fontenay Crt , Etobicoke - Edenbridge-Humber Valley",22 days ago,43.6836175,-79.51172969999999
/on/etobicoke-real-estate/82-cliveden-ave/home/2Zpj39EN6Nk3DrK8/,"$1,750,000","$1,650,000",Detached,"82 Cliveden Ave , Etobicoke - Stonegate-Queensway",22 days ago,43.6441329,-79.5114835
/on/etobicoke-real-estate/30-windsor-st/home/6VLaGyG2KZGYW1ZD/,"$1,239,000","$1,225,000",Freehold Townhouse,"30 Windsor St , Etobicoke - Mimico",22 days ago,43.61760839999999,-79.49757770000001
/on/etobicoke-real-estate/48a-st-andrew-blvd/home/B5bO3xXqNOg3kWVP/,"$1,199,649","$1,270,000",Detached,"48A St. Andrew Blvd , Etobicoke - Kingsview Village-The Westway",22 days ago,43.7002144,-79.5546016
/on/etobicoke-real-estate/18-bankfield-dr/home/xLkv3V9pJKQ7DBNr/,"$995,000","$985,000",Detached,"18 Bankfield Dr , Etobicoke - Thistletown-Beaumonde Heights",22 days ago,43.7368658,-79.5554303
/on/etobicoke-real-estate/96-20-william-jackson-way/home/amgL7A46NBnyZ1MW/,"$599,000","$700,000",Condo Townhouse,"96 - 20 William Jackson Way , Etobicoke - New Toronto",23 days ago,43.6008792,-79.5127208
/on/etobicoke-real-estate/88-wellesworth-dr/home/jAXw7Qw1XEXYQOzg/,"$1,188,800","$1,148,500",Detached,"88 Wellesworth Dr , Etobicoke - Eringate-Centennial-West Deane",23 days ago,43.6643755,-79.5824143
/on/etobicoke-real-estate/1510-6-eva-rd/home/L4KAX7NXppPYeRPJ/,"$590,000","$554,200",Condo Apt,"1510 - 6 Eva Rd , Etobicoke - Etobicoke West Mall",23 days ago,43.6406065,-79.56235989999999
/on/etobicoke-real-estate/19-culnan-ave/home/RdXze3ePxVL78m9K/,"$1,299,000","$1,220,000",Detached,"19 Culnan Ave , Etobicoke - Islington-City Centre West",23 days ago,43.6228784,-79.52453489999999
/on/etobicoke-real-estate/44-nugent-rd/home/obqB176ZDAM7ZajD/,"$1,398,000","$1,398,000",Detached,"44 Nugent Rd , Etobicoke - Kingsview Village-The Westway",23 days ago,43.6915889,-79.5526816
/on/etobicoke-real-estate/43-ludgate-dr/home/damgL7AVQeL3Z1MW/,"$949,990","$898,125",Detached,"43 LUDGATE Dr , Etobicoke - Rexdale-Kipling",23 days ago,43.7316106,-79.5746723
/on/etobicoke-real-estate/27-blackbush-dr/home/L5VXv3lNXbOyj2q8/,"$868,888","$865,000",Detached,"27 Blackbush Dr , Etobicoke - Mount Olive-Silverstone-Jamestown",23 days ago,43.7503663,-79.592417
/on/etobicoke-real-estate/505-61-richview-rd/home/6VLaGyG0PlG7W1ZD/,"$575,000","$575,000",Condo Apt,"505 - 61 Richview Rd , Etobicoke - Humber Heights",23 days ago,43.684081,-79.5167385
/on/etobicoke-real-estate/1804-61-richview-rd/home/9w8o3m5xwgX3GKjm/,"$565,000","$535,000",Condo Apt,"1804 - 61 Richview Rd , Etobicoke - Humber Heights",23 days ago,43.684081,-79.5167385
/on/etobicoke-real-estate/2125-165-legion-rd-n/home/VaD6p780wD47wRQr/,"$567,000","$540,000",Condo Apt,"2125 - 165 Legion Rd N , Etobicoke - Mimico",23 days ago,43.6241214,-79.48801
/on/etobicoke-real-estate/603-10-eva-rd/home/XeEn7X6Oq1vYrPo8/,"$689,900","$657,500",Condo Apt,"603 - 10 Eva Rd , Etobicoke - Etobicoke West Mall",23 days ago,43.6401499,-79.5629197
/on/etobicoke-real-estate/13-berl-ave/home/zVwod7va4PMy5mGN/,"$1,275,000","$1,255,000",Detached,"13 Berl Ave , Etobicoke - Stonegate-Queensway",24 days ago,43.6283947,-79.4975206
/on/etobicoke-real-estate/35-hepworth-dr/home/2Z5BX32B2rO3Dar0/,"$929,868","$920,000",Semi-Detached,"35 Hepworth Dr , Etobicoke - Willowridge-Martingrove-Richview",24 days ago,43.6807407,-79.5700991
/on/etobicoke-real-estate/21-groverdale-rd/home/EXrx30X8X1g3OklN/,"$1,275,000","$1,250,000",Detached,"21 Groverdale Rd , Etobicoke - Etobicoke West Mall",24 days ago,43.6501589,-79.575028
/on/etobicoke-real-estate/2210-2285-lake-shore-blvd-w/home/6VLaGyGkpOByW1ZD/,"$569,420","$510,000",Condo Apt,"2210 - 2285 Lake Shore Blvd W , Etobicoke - Mimico",24 days ago,43.6187415,-79.48552610000002
/on/etobicoke-real-estate/47-28-rexdale-blvd/home/dXawjy4VnQ63rR18/,"$559,800","$550,000",Condo Townhouse,"47 - 28 Rexdale Blvd , Etobicoke - Rexdale-Kipling",24 days ago,43.7142399,-79.55794000000002
/on/etobicoke-real-estate/910-101-subway-cres/home/zVwod7veDoy5mGNk/,"$639,000","$605,000",Condo Townhouse,"910 - 101 Subway Cres , Etobicoke - Islington-City Centre West",24 days ago,43.6348212,-79.5394208
/on/etobicoke-real-estate/3-hardwick-crt/home/aD6p781mGer3wRQr/,"$999,999","$1,010,000",Detached,"3 Hardwick Crt , Etobicoke - Eringate-Centennial-West Deane",24 days ago,43.6689004,-79.581383
/on/etobicoke-real-estate/911-5-rowntree-rd/home/damgL7Akr6VYZ1MW/,"$499,000","$580,000",Condo Apt,"911 - 5 Rowntree Rd , Etobicoke - Mount Olive-Silverstone-Jamestown",24 days ago,43.7494792,-79.5807578
/on/etobicoke-real-estate/907-1-michael-power-pl/home/dXawjy4ZWjp3rR18/,"$578,880","$547,000",Condo Apt,"907 - 1 Michael Power Pl , Etobicoke - Islington-City Centre West",24 days ago,43.643914,-79.5291683
/on/etobicoke-real-estate/306-4208-dundas-st-w/home/02Zpj39PEPO7DrK8/,"$799,000","$700,000",Condo Apt,"306 - 4208 Dundas St W , Etobicoke - Edenbridge-Humber Valley",24 days ago,43.6606066,-79.5117534
/on/etobicoke-real-estate/1909-225-sherway-gardens-rd/home/jAXw7Qwl5BdYQOzg/,"$685,000","$655,000",Condo Apt,"1909 - 225 Sherway Gardens Rd , Etobicoke - Islington-City Centre West",24 days ago,43.6089754,-79.55871499999999
/on/etobicoke-real-estate/159-princess-anne-cres/home/damgL7A10kV7Z1MW/,"$1,788,000","$1,712,500",Detached,"159 Princess Anne Cres , Etobicoke - Princess-Rosethorn",24 days ago,43.6761266,-79.5492754
/on/etobicoke-real-estate/703-2212-lake-shore-blvd-w/home/dXawjy4Zogb3rR18/,"$675,000","$650,000",Condo Apt,"703 - 2212 Lake Shore Blvd W , Etobicoke - Mimico",24 days ago,43.6099377,-79.48719700000001
/on/etobicoke-real-estate/3336-5-mabelle-ave/home/1DBW7RD8awdYqlAp/,"$728,800","$725,000",Condo Apt,"3336 - 5 Mabelle Ave , Etobicoke - Islington-City Centre West",24 days ago,43.6466642,-79.5255121
/on/etobicoke-real-estate/3-339-dalesford-rd/home/N0A9X3jLgLwyvgxV/,"$1,299,000","$1,275,000",Freehold Townhouse,"3 - 339 Dalesford Rd , Etobicoke - Stonegate-Queensway",24 days ago,43.6247274,-79.4978831
/on/etobicoke-real-estate/202-40-old-mill-rd/home/JjAXw7QxjQkyQOzg/,"$1,375,000","$1,350,000",Condo Apt,"202 - 40 Old Mill Rd , Etobicoke - Kingsway South",24 days ago,43.6514301,-79.49465169999999
/on/etobicoke-real-estate/706-10-eva-rd/home/eVbOYEp5A9K3x2P0/,"$689,900","$830,000",Condo Apt,"706 - 10 Eva Rd , Etobicoke - Etobicoke West Mall",25 days ago,43.6401499,-79.5629197
/on/etobicoke-real-estate/1-westmount-park-rd/home/r56k97w5M6xYKRjD/,"$3,799,900","$3,500,000",Detached,"1 Westmount Park Rd , Etobicoke - Humber Heights",25 days ago,43.6905468,-79.52973980000002
/on/etobicoke-real-estate/43-ashfield-dr/home/GMnKYqpkJVj3w1Qr/,"$1,119,990","$1,030,000",Detached,"43 Ashfield Dr , Etobicoke - Eringate-Centennial-West Deane",25 days ago,43.66630019999999,-79.5831729
/on/etobicoke-real-estate/20-fletcher-pl/home/XeEn7X6D6QgYrPo8/,"$899,000","$1,025,000",Detached,"20 Fletcher Pl , Etobicoke - Kingsview Village-The Westway",25 days ago,43.6911966,-79.54608809999999
/on/etobicoke-real-estate/1057-royal-york-rd/home/eQp5yO8avAb7d0ZE/,"$1,649,999","$1,640,000",Detached,"1057 Royal York Rd , Etobicoke - Kingsway South",25 days ago,43.6542889,-79.5140569
/on/etobicoke-real-estate/503-oxford-st/home/L5VXv3lGmkw7j2q8/,"$1,099,900","$1,357,500",Freehold Townhouse,"503 Oxford St , Etobicoke - Mimico",25 days ago,43.6236542,-79.49316739999999
/on/etobicoke-real-estate/47-stephen-dr/home/ZEXrx30kmZg7OklN/,"$849,000","$940,000",Semi-Detached,"47 Stephen Dr , Etobicoke - Stonegate-Queensway",25 days ago,43.6328643,-79.4850151
/on/etobicoke-real-estate/608-21-markbrook-lane/home/L4KAX7NjZRd7eRPJ/,"$549,900","$525,000",Condo Apt,"608 - 21 Markbrook Lane , Etobicoke - Mount Olive-Silverstone-Jamestown",25 days ago,43.7587292,-79.5875627
/on/etobicoke-real-estate/102-freemont-ave/home/GMnKYqpkXd53w1Qr/,"$1,588,000","$1,525,000",Detached,"102 Freemont Ave , Etobicoke - Humber Heights",25 days ago,43.6927814,-79.5207173
/on/etobicoke-real-estate/1723-2-eva-rd/home/L4KAX7N2rRq7eRPJ/,"$529,900","$530,000",Condo Apt,"1723 - 2 Eva Rd , Etobicoke - Etobicoke West Mall",25 days ago,43.6404182,-79.56257389999999
/on/etobicoke-real-estate/506-38-fontenay-crt/home/5xLkv3V4ZnOyDBNr/,"$679,000","$675,000",Condo Apt,"506 - 38 Fontenay Crt , Etobicoke - Edenbridge-Humber Valley",25 days ago,43.6836175,-79.51172969999999
/on/etobicoke-real-estate/33-tynevale-dr/home/0J6Em7bxgo8YXBeq/,"$999,900","$1,153,000",Detached,"33 Tynevale Dr , Etobicoke - Willowridge-Martingrove-Richview",25 days ago,43.6855641,-79.56049759999999
/on/etobicoke-real-estate/5-ixworth-rd/home/J6Em7bnawK87XBeq/,"$1,199,000","$1,185,000",Detached,"5 Ixworth Rd , Etobicoke - West Humber-Clairville",26 days ago,43.7255754,-79.57642589999999
/on/etobicoke-real-estate/22-glen-meadow-crt/home/0MWBVyZEQAkYKemj/,"$1,775,000","$1,699,000",Detached,"22 Glen Meadow Crt , Etobicoke - Islington-City Centre West",26 days ago,43.6478519,-79.5566035
/on/etobicoke-real-estate/66-11-edward-horton-cres/home/nM697k5ejPgYbmwe/,"$1,219,000","$1,190,000",Condo Townhouse,"66 - 11 Edward Horton Cres , Etobicoke - Islington-City Centre West",26 days ago,43.6326464,-79.5193529
/on/etobicoke-real-estate/20-210-manitoba-st/home/damgL7A4wNbyZ1MW/,"$899,800","$960,000",Condo Townhouse,"20 - 210 Manitoba St , Etobicoke - Mimico",26 days ago,43.62390800000001,-79.49105240000002
/on/etobicoke-real-estate/60-ridgemount-rd/home/MWBVyZ9WxBpYKemj/,"$1,348,888","$1,285,000",Detached,"60 Ridgemount Rd , Etobicoke - Humber Heights",26 days ago,43.6861466,-79.5241727
/on/etobicoke-real-estate/3-chilcot-ave/home/GMnKYqpLgA63w1Qr/,"$798,000","$901,000",Detached,"3 Chilcot Ave , Etobicoke - Elms-Old Rexdale",26 days ago,43.7132714,-79.5516136
/on/etobicoke-real-estate/61-heman-st/home/ZEXrx30pZVp3OklN/,"$1,549,000","$1,520,000",Detached,"61 Heman St , Etobicoke - Mimico",26 days ago,43.604278,-79.4965733
/on/etobicoke-real-estate/109-symons-st/home/2Z5BX3212ql7Dar0/,"$1,399,000","$1,342,500",Detached,"109 Symons St , Etobicoke - Mimico",26 days ago,43.6071485,-79.4958934
/on/etobicoke-real-estate/403-61-richview-rd/home/JjAXw7QROpk3QOzg/,"$598,000","$589,000",Co-Op Apt,"403 - 61 Richview Rd , Etobicoke - Humber Heights",26 days ago,43.684081,-79.5167385
/on/etobicoke-real-estate/509-101-subway-cres/home/RdXze3egR0zy8m9K/,"$589,000","$583,000",Condo Apt,"509 - 101 Subway Cres , Etobicoke - Islington-City Centre West",26 days ago,43.6348212,-79.5394208
/on/etobicoke-real-estate/27-snaresbrook-dr/home/5xLkv3V6MJz3DBNr/,"$998,000","$1,025,000",Detached,"27 Snaresbrook Dr , Etobicoke - Rexdale-Kipling",26 days ago,43.7217956,-79.57000819999999
/on/etobicoke-real-estate/2512-155-legion-rd-n/home/BGMnKYqNmQRyw1Qr/,"$849,999","$808,000",Condo Apt,"2512 - 155 Legion Rd , Etobicoke - Mimico",26 days ago,43.6239698,-79.4884113
/on/etobicoke-real-estate/86-seventeenth-st/home/BXeEn7X5KVo3rPo8/,"$999,999","$1,180,000",Detached,"86 Seventeenth St , Etobicoke - New Toronto",26 days ago,43.602197,-79.5178129
/on/etobicoke-real-estate/45-oldham-rd/home/gAaOyL8N59KyGxMb/,"$1,629,000","$1,756,000",Detached,"45 Oldham Rd , Etobicoke - Princess-Rosethorn",26 days ago,43.67750179999999,-79.54225029999999
/on/etobicoke-real-estate/14-graystone-gdns/home/4KAX7NONDrJ3eRPJ/,"$2,125,000","$1,998,000",Detached,"14 Graystone Gdns , Etobicoke - Islington-City Centre West",26 days ago,43.6404095,-79.523408
/on/etobicoke-real-estate/25-langfield-cres/home/6zqW7dGAgOvy5eZE/,"$800,000","$887,000",Detached,"25 Langfield Cres , Etobicoke - Mount Olive-Silverstone-Jamestown",26 days ago,43.7473077,-79.5898759
/on/etobicoke-real-estate/5-chapman-rd/home/obqB176JXwj7ZajD/,"$1,698,000","$1,698,000",Detached,"5 Chapman Rd , Etobicoke - Humber Heights",26 days ago,43.6886764,-79.5146753
/on/etobicoke-real-estate/1-80-eastwood-park-gdns/home/DO1w3Wqk2LKy8Jg0/,"$1,098,000","$1,075,000",Condo Townhouse,"1 - 80 Eastwood Park Gdns , Etobicoke - Long Branch",26 days ago,43.5954981,-79.5353715
/on/etobicoke-real-estate/1502-15-michael-power-pl/home/oK8OgYBlp547JmG2/,"$619,900","$603,000",Condo Apt,"1502 - 15 Michael Power Pl , Etobicoke - Islington-City Centre West",27 days ago,43.6450597,-79.5300137
/on/etobicoke-real-estate/49-eastbourne-cres/home/jJKdOYrG6Azy54lW/,"$1,488,000","$1,488,000",Detached,"49 Eastbourne Cres , Etobicoke - Mimico",27 days ago,43.6056672,-79.4919158
/on/etobicoke-real-estate/28-alanmeade-cres/home/6zqW7dGALRXy5eZE/,"$1,199,900","$1,205,000",Detached,"28 Alanmeade Cres , Etobicoke - Islington-City Centre West",27 days ago,43.6542732,-79.55871719999999
/on/etobicoke-real-estate/7-bewdley-pl/home/dXawjy4NRvb3rR18/,"$3,689,000","$3,419,700",Detached,"7 Bewdley Pl , Etobicoke - Edenbridge-Humber Valley",27 days ago,43.6793177,-79.51726420000001
/on/etobicoke-real-estate/9-conifer-dr/home/JRv53KDNAz6YVPW4/,"$1,698,000","$1,650,000",Detached,"9 Conifer Dr , Etobicoke - Markland Wood",27 days ago,43.6298585,-79.5722924
/on/etobicoke-real-estate/2210-1-aberfoyle-cres/home/weQp5yOEJV03d0ZE/,"$1,050,000","$1,000,000",Condo Apt,"2210 - 1 Aberfoyle Cres , Etobicoke - Islington-City Centre West",27 days ago,43.6458046,-79.5197835
/on/etobicoke-real-estate/62-hunting-rdge/home/2Z5BX32nDVw3Dar0/,"$1,999,999","$2,307,000",Detached,"62 Hunting Rdge , Etobicoke - Willowridge-Martingrove-Richview",27 days ago,43.6818316,-79.5519522
/on/etobicoke-real-estate/39-treeview-dr/home/VaD6p78mp863wRQr/,"$1,088,000","$1,138,900",Detached,"39 TREEVIEW Dr , Etobicoke - Alderwood",27 days ago,43.60762159999999,-79.5335659
/on/etobicoke-real-estate/103-49-silverstone-dr/home/damgL7AkQd5YZ1MW/,"$599,900","$595,000",Condo Apt,"103 - 49 Silverstone Dr , Etobicoke - Mount Olive-Silverstone-Jamestown",27 days ago,43.7450458,-79.5872519
/on/etobicoke-real-estate/19-jackson-ave/home/kbEDRYa501NY1VaB/,"$2,199,000","$2,175,000",Detached,"19 Jackson Ave , Etobicoke - Kingsway South",27 days ago,43.64903760000001,-79.5090554
/on/etobicoke-real-estate/2023-9-mabelle-ave/home/a6zqW7dpkVp75eZE/,"$699,900","$680,000",Condo Apt,"2023 - 9 Mabelle Ave , Etobicoke - Islington-City Centre West",27 days ago,43.6459961,-79.52595
/on/etobicoke-real-estate/1-lake-shore-dr/home/510QqypNwnD3LGlV/,"$4,250,000","$3,980,000",Detached,"1 Lake Shore Dr , Etobicoke - New Toronto",27 days ago,43.6012718,-79.4975662
/on/etobicoke-real-estate/91-seventeenth-st/home/dXawjy4r06q3rR18/,"$2,448,800","$2,200,000",Detached,"91 Seventeenth St , Etobicoke - New Toronto",27 days ago,43.6024656,-79.5174351
/on/etobicoke-real-estate/27-mitcham-dr/home/gaQmD7zKo8A3J9Bo/,"$1,249,000","$1,250,000",Detached,"27 Mitcham Dr , Etobicoke - Alderwood",27 days ago,43.60374270000001,-79.55126299999999
/on/etobicoke-real-estate/12-nineteenth-st/home/0Zaw5YonOAq3n961/,"$1,125,000","$1,060,000",Detached,"12 Nineteenth St , Etobicoke - Long Branch",27 days ago,43.5933961,-79.5382607
/on/etobicoke-real-estate/93-hadrian-dr/home/jJKdOYrbDdqY54lW/,"$995,000","$975,000",Detached,"93 Hadrian Dr , Etobicoke - Elms-Old Rexdale",27 days ago,43.7162401,-79.5461144
/on/etobicoke-real-estate/6-valiant-rd/home/EeVbOYEJOVVyx2P0/,"$2,749,000","$2,740,000",Detached,"6 Valiant Rd , Etobicoke - Kingsway South",28 days ago,43.6559373,-79.5156688
/on/etobicoke-real-estate/58-masseygrove-cres/home/BDO1w3W2Lzd78Jg0/,"$799,000","$880,000",Detached,"58 Masseygrove Cres , Etobicoke - Mount Olive-Silverstone-Jamestown",28 days ago,43.7378557,-79.58270329999999
/on/etobicoke-real-estate/43-ludgate-dr/home/damgL7AVQeL3Z1MW/,"$949,990","$898,125",Detached,"43 Ludgate Dr , Etobicoke - Rexdale-Kipling",28 days ago,43.7316106,-79.5746723
/on/etobicoke-real-estate/67-sunnylea-ave-e/home/56k97wq5QAeYKRjD/,"$2,025,000","$1,995,000",Detached,"67 Sunnylea Ave E , Etobicoke - Stonegate-Queensway",28 days ago,43.6433752,-79.4957343
/on/etobicoke-real-estate/23-85-eastwood-park-gdns/home/MB5bO3xaMakYkWVP/,"$820,000","$818,000",Condo Townhouse,"23 - 85 Eastwood Park Gdns , Etobicoke - Long Branch",28 days ago,43.5948041,-79.5348114
/on/etobicoke-real-estate/55-green-lanes-lane/home/kbEDRYaQ6OOY1VaB/,"$1,395,000","$1,340,000",Semi-Detached,"55 Green Lanes , Etobicoke - Islington-City Centre West",29 days ago,43.6416512,-79.5243036
/on/etobicoke-real-estate/243-364-the-east-mall/home/BXeEn7XAKBd3rPo8/,"$625,000","$615,000",Condo Townhouse,"243 - 364 The East Mall , Etobicoke - Islington-City Centre West",29 days ago,43.64246,-79.55959000000001
/on/etobicoke-real-estate/99-burlingame-rd/home/6zqW7dGAVEey5eZE/,"$998,900","$1,000,000",Detached,"99 Burlingame Rd , Etobicoke - Alderwood",29 days ago,43.5990382,-79.5520241
/on/etobicoke-real-estate/402-3-michael-power-pl/home/JjAXw7QE8Zp7QOzg/,"$599,900","$588,000",Condo Apt,"402 - 3 Michael Power Pl , Etobicoke - Islington-City Centre West",29 days ago,43.6440199,-79.5288851
/on/etobicoke-real-estate/11-kingsway-cres/home/BXeEn7XvV40YrPo8/,"$7,950,000","$7,700,000",Detached,"11 Kingsway Cres , Etobicoke - Kingsway South",30 days ago,43.6537836,-79.5044315
/on/etobicoke-real-estate/1602-5229-dundas-st-w/home/jJKdOYr5rz354lWL/,"$515,000","$515,000",Condo Apt,"1602 - 5229 Dundas St W , Etobicoke - Islington-City Centre West",30 days ago,43.6394019,-79.536546
/on/etobicoke-real-estate/203-2119-lake-shore-blvd-w/home/BDO1w3Wrkvn78Jg0/,"$599,900","$595,000",Condo Apt,"203 - 2119 Lake Shore Blvd W , Etobicoke - Mimico",30 days ago,43.6279574,-79.4782553
/on/etobicoke-real-estate/276-lake-promenade/home/xLkv3V9pOXO7DBNr/,"$1,820,000","$1,730,000",Detached,"276 Lake Promenade , Etobicoke - Long Branch",30 days ago,43.5888213,-79.532907
/on/etobicoke-real-estate/76-ashmount-cres/home/N0A9X3jz2dD3vgxV/,"$2,099,888","$2,099,888",Detached,"76 Ashmount Cres , Etobicoke - Willowridge-Martingrove-Richview",30 days ago,43.6855597,-79.5461626
/on/etobicoke-real-estate/1008-1185-the-queensway-ave-s/home/02Zpj39ql5g3DrK8/,"$719,900","$700,500",Condo Apt,"1008 - 1185 The Queensway Ave , Etobicoke - Islington-City Centre West",30 days ago,43.6218008,-79.5215288
/on/etobicoke-real-estate/505-2267-lakeshore-blvd-w/home/bqB176WDp6W3ZajD/,"$790,000","$775,000",Condo Apt,"505 - 2267 Lakeshore Blvd W , Etobicoke - Mimico",30 days ago,43.6189509,-79.4830029
/on/etobicoke-real-estate/55-pheasant-lane/home/DnM697kzPzQybmwe/,"$3,248,000","$2,900,000",Detached,"55 Pheasant Lane , Etobicoke - Princess-Rosethorn",30 days ago,43.6627356,-79.54318359999999
/on/etobicoke-real-estate/24-valiant-rd/home/5xLkv3VOVq6YDBNr/,"$3,850,000","$3,730,000",Detached,"24 Valiant Rd , Etobicoke - Kingsway South",30 days ago,43.6556795,-79.51684329999999
/on/etobicoke-real-estate/309-225-sherway-gardens-rd/home/jJKdOYrgErny54lW/,"$509,990","$510,000",Condo Apt,"309 - 225 Sherway Gardens Rd , Etobicoke - Islington-City Centre West",30 days ago,43.6089754,-79.55871499999999
/on/etobicoke-real-estate/17-old-burnhamthorpe-rd/home/Vwod7vrQnjo75mGN/,"$1,729,000","$1,725,000",Detached,"17 Old Burnhamthorpe Rd , Etobicoke - Eringate-Centennial-West Deane",2024-10-31,43.6434204,-79.57717880000001
/on/etobicoke-real-estate/1607-101-subway-cres/home/02Zpj392k4gYDrK8/,"$469,900","$460,000",Condo Apt,"1607 - 101 Subway Cres , Etobicoke - Islington-City Centre West",2024-10-31,43.6348212,-79.5394208
/on/etobicoke-real-estate/27-crestridge-hts-rd/home/1DBW7RDRM8dYqlAp/,"$1,299,000","$1,295,000",Detached,"27 Crestridge Hts Rd , Etobicoke - Willowridge-Martingrove-Richview",2024-10-31,43.6832691,-79.5285976
/on/etobicoke-real-estate/522-6-humberline-dr/home/5xLkv3VdXlZyDBNr/,"$624,900","$615,000",Condo Apt,"522 - 6 Humberline Dr , Etobicoke - West Humber-Clairville",2024-10-31,43.73072330000001,-79.61089489999999
/on/etobicoke-real-estate/1503-25-fontenay-crt/home/oK8OgYBepx53JmG2/,"$425,000","$520,000",Condo Apt,"1503 - 25 Fontenay Crt , Etobicoke - Edenbridge-Humber Valley",2024-10-30,43.682477,-79.5111077
/on/etobicoke-real-estate/804-1050-the-queensway/home/Z5BX32zBL643Dar0/,"$579,000","$565,000",Condo Apt,"804 - 1050 The Queensway , Etobicoke - Islington-City Centre West",2024-10-30,43.6233479,-79.5171886
/on/etobicoke-real-estate/3005-16-brookers-lane/home/BGMnKYq0wZ63w1Qr/,"$1,299,900","$1,280,000",Condo Apt,"3005 - 16 Brookers Lane , Etobicoke - Mimico",2024-10-30,43.6269107,-79.4786185
/on/etobicoke-real-estate/101-clearbrooke-circ/home/ZEXrx30nq9pyOklN/,"$998,800","$1,240,000",Detached,"101 Clearbrooke Circ , Etobicoke - Rexdale-Kipling",2024-10-30,43.721799,-79.56152929999999
/on/etobicoke-real-estate/87-toledo-rd/home/B5bO3xXqpLL3kWVP/,"$1,175,000","$1,175,000",Detached,"87 Toledo Rd , Etobicoke - Markland Wood",2024-10-30,43.63427009999999,-79.57624489999999
/on/etobicoke-real-estate/14-oxenden-cres/home/ZxwR7MwBv6PYKabB/,"$1,000,000","$1,005,000",Detached,"14 Oxenden Cres , Etobicoke - Eringate-Centennial-West Deane",2024-10-30,43.65490690000001,-79.57834780000002
/on/etobicoke-real-estate/519-3391-bloor-st-w/home/N0A9X3j4omEyvgxV/,"$538,000","$525,000",Condo Apt,"519 - 3391 Bloor St W , Etobicoke - Islington-City Centre West",2024-10-30,43.6442533,-79.52385249999999
/on/etobicoke-real-estate/24-rufford-rd/home/510QqypX6q5yLGlV/,"$1,298,888","$1,265,000",Detached,"24 Rufford Rd , Etobicoke - Alderwood",2024-10-30,43.6075592,-79.55540669999999
/on/etobicoke-real-estate/3403-33-shore-breeze-dr/home/MB5bO3xddvL3kWVP/,"$799,900","$758,000",Condo Apt,"3403 - 33 Shore Breeze Dr , Etobicoke - Mimico",2024-10-30,43.6240074,-79.4792379
/on/etobicoke-real-estate/4-grimsby-crt/home/kbEDRYaJP1Py1VaB/,"$3,399,999","$3,250,000",Detached,"4 Grimsby Crt , Etobicoke - Princess-Rosethorn",2024-10-30,43.6710501,-79.5477209
/on/etobicoke-real-estate/528-10-park-lawn-rd/home/0J6Em7bALxQyXBeq/,"$750,000","$750,000",Condo Apt,"528 - 10 Park Lawn Rd , Etobicoke - Mimico",2024-10-30,43.6233108,-79.48375089999999
/on/etobicoke-real-estate/30-mcintosh-ave/home/1DBW7RDN5WAYqlAp/,"$1,098,888","$1,050,000",Detached,"30 McIntosh Ave , Etobicoke - Stonegate-Queensway",2024-10-29,43.6298705,-79.4974328
/on/etobicoke-real-estate/45-jeffcoat-dr/home/wJKR7P8nqap7XeLP/,"$999,900","$940,000",Detached,"45 Jeffcoat Dr , Etobicoke - West Humber-Clairville",2024-10-29,43.7244405,-79.5746285
/on/etobicoke-real-estate/58-twenty-seventh-st/home/bqB176WDJ8B3ZajD/,"$1,325,000","$1,280,000",Detached,"58 Twenty Seventh St , Etobicoke - Long Branch",2024-10-29,43.5931016,-79.5238571
/on/etobicoke-real-estate/304-65-annie-craig-dr/home/eQp5yO8a6Kw7d0ZE/,"$728,000","$720,000",Condo Apt,"304 - 65 Annie Craig Dr , Etobicoke - Mimico",2024-10-29,43.6246347,-79.4785627
/on/etobicoke-real-estate/199-willowridge-rd/home/damgL7AZavb3Z1MW/,"$1,299,000","$1,235,000",Detached,"199 Willowridge Rd , Etobicoke - Willowridge-Martingrove-Richview",2024-10-29,43.676129,-79.57369469999999
/on/etobicoke-real-estate/34-elmbrook-cres/home/AKv53DD259J3MnxB/,"$1,179,000","$1,240,000",Detached,"34 Elmbrook Cres , Etobicoke - Eringate-Centennial-West Deane",2024-10-29,43.658944,-79.5859984
/on/etobicoke-real-estate/1108-30-gibbs-rd/home/eVbOYEpD0Qd3x2P0/,"$599,900","$585,000",Condo Apt,"1108 - 30 Gibbs Rd , Etobicoke - Islington-City Centre West",2024-10-29,43.63903639999999,-79.55960739999999
/on/etobicoke-real-estate/3-200-royal-york-rd/home/RdXze3eGogoy8m9K/,"$988,800","$1,208,000",Freehold Townhouse,"3 - 200 Royal York Rd , Etobicoke - Mimico",2024-10-29,43.6119322,-79.49676459999999
/on/etobicoke-real-estate/881-royal-york-rd/home/PXRla7gOmgr7jEvL/,"$1,498,888","$1,465,000",Detached,"881 Royal York Rd , Etobicoke - Stonegate-Queensway",2024-10-29,43.644458,-79.5098671
/on/etobicoke-real-estate/lph909-1195-the-queensway/home/ZxwR7MwbvnPYKabB/,"$599,900","$567,500",Condo Apt,"LPH909 - 1195 The Queensway St , Etobicoke - Islington-City Centre West",2024-10-29,43.62163,-79.52248
/on/etobicoke-real-estate/100-neilson-dr/home/1DBW7RDNKERYqlAp/,"$2,695,000","$2,625,000",Detached,"100 Neilson Dr , Etobicoke - Markland Wood",2024-10-29,43.6325931,-79.56692579999999
/on/etobicoke-real-estate/3035-5-mabelle-ave/home/GMnKYqp55jK3w1Qr/,"$749,000","$740,000",Condo Apt,"3035 - 5 Mabelle Ave , Etobicoke - Islington-City Centre West",2024-10-29,43.6466642,-79.5255121
/on/etobicoke-real-estate/259-aldercrest-rd/home/DO1w3Wqr2G6y8Jg0/,"$1,098,000","$1,050,000",Detached,"259 Aldercrest Rd , Etobicoke - Alderwood",2024-10-29,43.61030580000001,-79.5424518
/on/etobicoke-real-estate/2726-2-eva-rd/home/5xLkv3VPaPpyDBNr/,"$559,000","$555,000",Condo Apt,"2726 - 2 Eva Rd , Etobicoke - Etobicoke West Mall",2024-10-29,43.6404182,-79.56257389999999
/on/etobicoke-real-estate/45-79-elder-ave/home/Zaw5Yo55ooD7n961/,"$999,999","$1,170,000",Freehold Townhouse,"45 - 79 Elder Ave , Etobicoke - Long Branch",2024-10-29,43.5980202,-79.5287408
/on/etobicoke-real-estate/50-50-silver-shadow-path/home/XeEn7X6O0xMYrPo8/,"$819,900","$804,500",Condo Townhouse,"50 - 50 Silver Shadow Path , Etobicoke - Markland Wood",2024-10-28,43.6399278,-79.57994409999999
/on/etobicoke-real-estate/1905-1320-islington-ave/home/bqB176WDQon3ZajD/,"$610,000","$610,000",Condo Apt,"1905 - 1320 Islington Ave , Etobicoke - Islington-City Centre West",2024-10-28,43.6500087,-79.5264893
/on/etobicoke-real-estate/910-11-superior-ave/home/5xLkv3VDKqZyDBNr/,"$699,000","$645,000",Condo Apt,"910 - 11 Superior Ave , Etobicoke - Mimico",2024-10-28,43.61522919999999,-79.4889486
/on/etobicoke-real-estate/2608-2220-lake-shore-blvd-w/home/N0A9X3jkXQmYvgxV/,"$659,000","$650,000",Condo Apt,"2608 - 2220 Lake Shore Blvd W , Etobicoke - Mimico",2024-10-28,43.6228596,-79.4831828
/on/etobicoke-real-estate/32-lynnford-dr/home/weQp5yO4A0J7d0ZE/,"$1,198,000","$1,185,000",Detached,"32 Lynnford Dr , Etobicoke - Islington-City Centre West",2024-10-28,43.6343294,-79.5525511
/on/etobicoke-real-estate/29-hill-garden-rd/home/0A9X3jP228myvgxV/,"$1,275,000","$1,185,000",Detached,"29 Hill Garden Rd , Etobicoke - Humber Heights",2024-10-28,43.69456479999999,-79.5238761
/on/etobicoke-real-estate/3-winsland-dr/home/XeEn7X6Oe1oYrPo8/,"$1,599,000","$1,760,000",Detached,"3 Winsland Dr , Etobicoke - Princess-Rosethorn",2024-10-28,43.6726644,-79.55828869999999
/on/etobicoke-real-estate/2507-380-dixon-rd/home/XRla7gxQRkX3jEvL/,"$429,900","$416,000",Condo Apt,"2507 - 380 Dixon Rd , Etobicoke - Kingsview Village-The Westway",2024-10-28,43.6949961,-79.5567885
/on/etobicoke-real-estate/53-bankfield-dr/home/9w8o3m5xKqk3GKjm/,"$1,048,800","$980,000",Detached,"53 Bankfield Dr , Etobicoke - Thistletown-Beaumonde Heights",2024-10-28,43.7347542,-79.5544084
/on/etobicoke-real-estate/519-7-smith-cres/home/jAXw7Qw1GrpYQOzg/,"$668,900","$626,000",Condo Apt,"519 - 7 Smith Cres , Etobicoke - Stonegate-Queensway",2024-10-27,43.62601859999999,-79.5060463
/on/etobicoke-real-estate/45-stephen-dr/home/r56k97w02V13KRjD/,"$1,010,000","$976,000",Semi-Detached,"45 Stephen Dr , Etobicoke - Stonegate-Queensway",2024-10-27,43.632815,-79.4849965
/on/etobicoke-real-estate/308-5229-dundas-st-w/home/damgL7AQEe27Z1MW/,"$849,000","$815,000",Condo Apt,"308 - 5229 Dundas St W , Etobicoke - Islington-City Centre West",2024-10-27,43.6394019,-79.536546
/on/etobicoke-real-estate/701-625-the-west-mall-ave/home/ZNkKJ3JXvPZyd4V6/,"$675,000","$650,000",Condo Apt,"701 - 625 The West Mall Ave , Etobicoke - Eringate-Centennial-West Deane",2024-10-26,43.6552669,-79.5707826
/on/etobicoke-real-estate/44-ashmount-cres/home/ZxwR7MwBKLxYKabB/,"$1,389,900","$1,505,000",Detached,"44 Ashmount Cres , Etobicoke - Willowridge-Martingrove-Richview",2024-10-26,43.6865675,-79.5483465
/on/etobicoke-real-estate/2633-35-viking-lane/home/ZEXrx30nEJNyOklN/,"$748,800","$725,000",Condo Apt,"2633 - 35 Viking Lane , Etobicoke - Islington-City Centre West",2024-10-26,43.6382435,-79.5362306
/on/etobicoke-real-estate/1227-5-mabelle-ave/home/Z5BX32z04xD3Dar0/,"$599,999","$575,000",Condo Apt,"1227 - 5 Mabelle Ave , Etobicoke - Islington-City Centre West",2024-10-25,43.6466642,-79.5255121
/on/etobicoke-real-estate/810-2045-lake-shore-blvd-w/home/L4KAX7NaOVqyeRPJ/,"$799,000","$900,000",Condo Apt,"810 - 2045 Lake Shore Blvd W , Etobicoke - Mimico",2024-10-25,43.6313539,-79.4746095
/on/etobicoke-real-estate/116-ravenscrest-dr/home/gaQmD7zOzPM3J9Bo/,"$1,591,000","$1,595,000",Detached,"116 Ravenscrest Dr , Etobicoke - Princess-Rosethorn",2024-10-25,43.6634922,-79.5565941
/on/etobicoke-real-estate/208-2083-lake-shore-blvd-w/home/xmZRW7n05LaYEBO9/,"$599,999","$550,000",Condo Apt,"208 - 2083 Lake Shore Blvd W , Etobicoke - Mimico",2024-10-25,43.62988989999999,-79.47686089999999
/on/etobicoke-real-estate/1101-2212-lake-shore-blvd-w/home/a6zqW7d99NV35eZE/,"$799,000","$810,000",Condo Apt,"1101 - 2212 Lake Shore Blvd , Etobicoke - Mimico",2024-10-25,43.6099377,-79.48719700000001
/on/etobicoke-real-estate/106-40-panorama-crt/home/weQp5yOaKzG3d0ZE/,"$499,800","$475,000",Condo Apt,"106 - 40 Panorama Crt , Etobicoke - Mount Olive-Silverstone-Jamestown",2024-10-25,43.7476922,-79.5797904
/on/etobicoke-real-estate/40-market-garden-mews/home/BDO1w3WaqVwy8Jg0/,"$1,088,888","$1,035,000",Freehold Townhouse,"40 Market Garden Mews , Etobicoke - Stonegate-Queensway",2024-10-25,43.6233622,-79.5134625
/on/etobicoke-real-estate/1303-50-thomas-riley-rd/home/5xLkv3VR2Lm3DBNr/,"$609,900","$609,000",Condo Apt,"1303 - 50 Thomas Riley Rd , Etobicoke - Islington-City Centre West",2024-10-25,43.6338301,-79.5415913
/on/etobicoke-real-estate/1602-820-burnhamthorpe-rd/home/LzQ1y5E98AnyqdeK/,"$614,900","$600,000",Condo Apt,"1602 - 820 BURNHAMTHORPE Rd , Etobicoke - Markland Wood",2024-10-25,43.6396483,-79.5829184
/on/etobicoke-real-estate/34-alhart-dr/home/B5bO3xXqbbV3kWVP/,"$949,000","$920,000",Detached,"34 Alhart Dr , Etobicoke - Thistletown-Beaumonde Heights",2024-10-25,43.7362001,-79.553072
/on/etobicoke-real-estate/41-ladbrooke-rd/home/XeEn7X6OJgEYrPo8/,"$999,999","$1,060,000",Detached,"41 Ladbrooke Rd , Etobicoke - Willowridge-Martingrove-Richview",2024-10-25,43.6826517,-79.5610684
/on/etobicoke-real-estate/304-710-humberwood-blvd/home/gJRv53KvOxP7VPW4/,"$675,999","$655,000",Condo Apt,"304 - 710 Humberwood Blvd , Etobicoke - West Humber-Clairville",2024-10-25,43.7247822,-79.6160393
/on/etobicoke-real-estate/46-foch-ave/home/b1DBW7RQBJEyqlAp/,"$999,999","$1,285,000",Semi-Detached,"46 Foch Ave , Etobicoke - Alderwood",2024-10-25,43.5952776,-79.5460962
/on/etobicoke-real-estate/71-neilson-dr/home/4KAX7NO2kNq3eRPJ/,"$1,748,000","$1,640,000",Detached,"71 Neilson Dr , Etobicoke - Markland Wood",2024-10-25,43.631989,-79.5658399
/on/etobicoke-real-estate/814-2267-lake-shore-blvd-w/home/obqB176LdqwYZajD/,"$699,000","$590,000",Condo Apt,"814 - 2267 Lake Shore Blvd W , Etobicoke - Mimico",2024-10-25,43.6189509,-79.4830029
/on/etobicoke-real-estate/2347-25-viking-lane/home/r56k97wkq5P7KRjD/,"$648,000","$638,000",Condo Apt,"2347 - 25 Viking Lane , Etobicoke - Islington-City Centre West",2024-10-24,43.6383246,-79.53595299999999
/on/etobicoke-real-estate/208-61-richview-rd/home/DO1w3Wqrrply8Jg0/,"$549,900","$549,000",Condo Apt,"208 - 61 Richview Rd , Etobicoke - Humber Heights",2024-10-24,43.684081,-79.5167385
/on/etobicoke-real-estate/28-larstone-ave/home/aQmD7znlpZ27J9Bo/,"$1,349,000","$1,370,500",Detached,"28 Larstone Ave , Etobicoke - Stonegate-Queensway",2024-10-24,43.63461,-79.5119424
/on/etobicoke-real-estate/1506-625-the-west-mall/home/510QqypaWpm7LGlV/,"$599,000","$595,000",Condo Apt,"1506 - 625 The West Mall , Etobicoke - Eringate-Centennial-West Deane",2024-10-24,43.6552669,-79.5707826
/on/etobicoke-real-estate/3819-30-shorebreeze-dr/home/wJKR7P8nerB7XeLP/,"$499,900","$571,000",Condo Apt,"3819 - 30 Shorebreeze Dr , Etobicoke - Mimico",2024-10-24,43.62377619999999,-79.47963299999999
/on/etobicoke-real-estate/12-20-woodstream-dr/home/mZRW7naWZngyEBO9/,"$699,000","$865,000",Condo Townhouse,"12 - 20 Woodstream Dr , Etobicoke - West Humber-Clairville",2024-10-24,43.7212211,-79.61188229999999
/on/etobicoke-real-estate/1032-165-legion-rd-n/home/zVwod7vGJM35mGNk/,"$629,000","$680,000",Condo Apt,"1032 - 165 Legion Rd N , Etobicoke - Mimico",2024-10-24,43.6241214,-79.48801
/on/etobicoke-real-estate/3017-30-shore-breeze-dr/home/nM697k5oWmbYbmwe/,"$649,000","$643,000",Condo Apt,"3017 - 30 Shore Breeze Dr , Etobicoke - Mimico",2024-10-24,43.62377619999999,-79.47963299999999
/on/etobicoke-real-estate/348-prince-edward-dr-n/home/Z5BX32zwAp13Dar0/,"$1,999,999","$2,111,000",Detached,"348 Prince Edward Dr N , Etobicoke - Kingsway South",2024-10-24,43.6494408,-79.5060407
/on/etobicoke-real-estate/516-475-the-west-mall/home/gaQmD7zdGDMYJ9Bo/,"$559,900","$545,000",Condo Apt,"516 - 475 The West Mall , Etobicoke - Etobicoke West Mall",2024-10-24,43.6477854,-79.5666294
/on/etobicoke-real-estate/1201-kipling-ave/home/Z5BX32z6Q0D3Dar0/,"$999,000","$1,258,000",Detached,"1201 Kipling Ave , Etobicoke - Princess-Rosethorn",2024-10-24,43.6582989,-79.5421887
/on/etobicoke-real-estate/3303-33-shore-breeze-dr-w/home/nM697k5rOrWYbmwe/,"$699,000","$755,000",Condo Apt,"3303 - 33 Shore Breeze Dr W , Etobicoke - Mimico",2024-10-24,43.6240074,-79.4792379
/on/etobicoke-real-estate/39-85-irwin-rd/home/obqB176GnXw3ZajD/,"$599,999","$610,000",Condo Townhouse,"39 - 85 Irwin Rd , Etobicoke - Elms-Old Rexdale",2024-10-23,43.72495,-79.55857999999999
/on/etobicoke-real-estate/529-26-gibbs-rd/home/wJKR7P8nRQX7XeLP/,"$498,000","$480,000",Condo Apt,"529 - 26 Gibbs Rd , Etobicoke - Islington-City Centre West",2024-10-23,43.63950560000001,-79.5584738
/on/etobicoke-real-estate/55-twelfth-st/home/LzQ1y5E9MJEyqdeK/,"$879,000","$960,000",Detached,"55 Twelfth St , Etobicoke - New Toronto",2024-10-23,43.596875,-79.50942549999999
/on/etobicoke-real-estate/9-seguin-crt/home/NAKv53DDv163MnxB/,"$999,000","$945,000",Semi-Detached,"9 Seguin Crt , Etobicoke - Mount Olive-Silverstone-Jamestown",2024-10-23,43.7439039,-79.59221420000002
/on/etobicoke-real-estate/309-859-the-queensway-w/home/MWBVyZ94mPkYKemj/,"$519,000","$510,000",Condo Townhouse,"309 - 859 The Queensway , Etobicoke - Stonegate-Queensway",2024-10-23,43.6245585,-79.5097756
/on/etobicoke-real-estate/802-362-the-east-mall/home/owJKR7P9BLp3XeLP/,"$599,900","$592,500",Condo Apt,"802 - 362 The East Mall , Etobicoke - Islington-City Centre West",2024-10-23,43.6426012,-79.5588071
/on/etobicoke-real-estate/38-macdonald-st/home/wJKR7P8d2v17XeLP/,"$1,600,000","$1,480,000",Detached,"38 Macdonald St , Etobicoke - Mimico",2024-10-23,43.6107233,-79.4980259
/on/etobicoke-real-estate/2744-35-viking-lane/home/knbq6y1a88ayo9DA/,"$699,000","$775,000",Condo Apt,"2744 - 35 Viking Lane , Etobicoke - Islington-City Centre West",2024-10-23,43.6382435,-79.5362306
/on/etobicoke-real-estate/1202-44-longbourne-dr/home/wJKR7P8nXb17XeLP/,"$515,000","$492,888",Condo Apt,"1202 - 44 Longbourne Dr , Etobicoke - Willowridge-Martingrove-Richview",2024-10-23,43.6807361,-79.5689807
/on/etobicoke-real-estate/1404-234-albion-rd/home/owJKR7PNk9DYXeLP/,"$499,000","$494,000",Condo Apt,"1404 - 234 Albion Rd , Etobicoke - Elms-Old Rexdale",2024-10-23,43.7211803,-79.5443161
/on/etobicoke-real-estate/1206-65-annie-craig-dr/home/XRla7gxKq4N3jEvL/,"$775,000","$765,000",Condo Apt,"1206 - 65 Annie Craig Dr , Etobicoke - Mimico",2024-10-23,43.6246347,-79.4785627
/on/etobicoke-real-estate/806-9-valhalla-inn-rd/home/PXRla7gxde93jEvL/,"$538,800","$528,000",Condo Apt,"806 - 9 Valhalla Inn Rd , Etobicoke - Islington-City Centre West",2024-10-23,43.6398779,-79.5593676
/on/etobicoke-real-estate/19-tapley-dr/home/XeEn7X6OkxEYrPo8/,"$999,999","$1,125,000",Detached,"19 Tapley Dr , Etobicoke - Willowridge-Martingrove-Richview",2024-10-22,43.6867757,-79.56281
/on/etobicoke-real-estate/3801-2200-lake-shore-blvd-w/home/weQp5yOjbebYd0ZE/,"$859,000","$790,000",Condo Apt,"3801 - 2200 Lake Shore Blvd W , Etobicoke - Mimico",2024-10-22,43.6015351,-79.5008962
/on/etobicoke-real-estate/602-65-annie-craig-dr/home/5xLkv3VxVnzyDBNr/,"$580,000","$585,000",Condo Apt,"602 - 65 Annie Craig Dr , Etobicoke - Long Branch",2024-10-22,43.6246347,-79.4785627
/on/etobicoke-real-estate/2508-10-park-lawn-rd/home/MWBVyZ9kvMpYKemj/,"$619,000","$580,000",Condo Apt,"2508 - 10 Park Lawn Rd , Etobicoke - Mimico",2024-10-22,43.6233108,-79.48375089999999
/on/etobicoke-real-estate/1710-9-valhalla-inn-rd/home/dXze3eKaRnpy8m9K/,"$599,000","$595,000",Condo Apt,"1710 - 9 Valhalla Inn Rd , Etobicoke - Islington-City Centre West",2024-10-22,43.6398779,-79.5593676
/on/etobicoke-real-estate/1611-251-manitoba-st/home/0Zaw5YoxqV4yn961/,"$549,900","$537,500",Condo Apt,"1611 - 251 Manitoba St , Etobicoke - Mimico",2024-10-22,43.6238372,-79.4893647
/on/etobicoke-real-estate/11-dittmer-cres/home/obqB176wrbM3ZajD/,"$989,900","$935,000",Detached,"11 Dittmer Cres , Etobicoke - West Humber-Clairville",2024-10-21,43.7210819,-79.5807882
/on/etobicoke-real-estate/6-masseygrove-cres/home/knbq6y1ewX4yo9DA/,"$1,098,000","$1,065,000",Detached,"(Address not available) , Etobicoke - Mount Olive-Silverstone-Jamestown",2024-10-21,43.74344869999999,-79.58741049999999
/on/etobicoke-real-estate/1004-716-the-west-mall-n-a/home/2Z5BX32m1mX7Dar0/,"$535,000","$475,000",Condo Apt,"1004 - 716 The West Mall , Etobicoke - Eringate-Centennial-West Deane",2024-10-21,43.656473,-79.5701414
/on/etobicoke-real-estate/3532-5-mabelle-ave/home/EXrx30XkBWg3OklN/,"$499,000","$504,000",Condo Apt,"3532 - 5 Mabelle Ave , Etobicoke - Islington-City Centre West",2024-10-21,43.6466642,-79.5255121
/on/etobicoke-real-estate/90-willingdon-blvd/home/VgAaOyLoWgPYGxMb/,"$3,488,000","$3,325,000",Detached,"90 Willingdon Blvd , Etobicoke - Kingsway South",2024-10-21,43.6526142,-79.5126631
/on/etobicoke-real-estate/1602-2111-lake-shore-blvd-w/home/VgAaOyL6qOz3GxMb/,"$1,149,000","$1,137,000",Condo Apt,"1602 - 2111 Lake Shore Blvd W , Etobicoke - Mimico",2024-10-21,43.6289912,-79.47756319999999
/on/etobicoke-real-estate/507-1-michael-power-pl/home/5xLkv3V1JjQ7DBNr/,"$549,000","$570,000",Condo Apt,"507 - 1 Michael Power Pl , Etobicoke - Islington-City Centre West",2024-10-21,43.643914,-79.5291683
/on/etobicoke-real-estate/12-king-georges-rd/home/DO1w3WqrbkOy8Jg0/,"$2,890,000","$2,689,000",Detached,"12 King Georges Rd , Etobicoke - Kingsway South",2024-10-21,43.6512432,-79.5043961
/on/etobicoke-real-estate/15-franca-cres/home/VaD6p78GxknywRQr/,"$999,999","$990,000",Detached,"15 Franca Cres , Etobicoke - Mount Olive-Silverstone-Jamestown",2024-10-21,43.7571561,-79.5930629
/on/etobicoke-real-estate/1605-1-aberfoyle-cres/home/Vwod7vrQo0p75mGN/,"$1,598,000","$1,500,000",Condo Apt,"1605 - 1 Aberfoyle Cres , Etobicoke - Islington-City Centre West",2024-10-21,43.6458046,-79.5197835
/on/etobicoke-real-estate/102-stanley-ave/home/MB5bO3xdark3kWVP/,"$979,000","$1,160,000",Semi-Detached,"102 Stanley Ave , Etobicoke - Mimico",2024-10-21,43.6151727,-79.4945771
/on/etobicoke-real-estate/9-tamarisk-dr/home/VLaGyG2D05MYW1ZD/,"$925,000","$845,000",Semi-Detached,"9 TAMARISK Dr , Etobicoke - West Humber-Clairville",2024-10-21,43.7339109,-79.59466239999999
/on/etobicoke-real-estate/1203-511-the-west-mall-circ/home/b1DBW7RRd2k7qlAp/,"$624,000","$600,000",Condo Apt,"1203 - 511 The West Mall , Etobicoke - Etobicoke West Mall",2024-10-21,43.6505403,-79.5685931
/on/etobicoke-real-estate/45-bordeaux-crct/home/eQp5yO8aqaQ7d0ZE/,"$799,900","$901,000",Detached,"45 Bordeaux Crct , Etobicoke - West Humber-Clairville",2024-10-21,43.753604,-79.6040244
/on/etobicoke-real-estate/57-cabernet-circ/home/BGMnKYqrWjRyw1Qr/,"$949,000","$900,000",Detached,"57 Cabernet Circ , Etobicoke - West Humber-Clairville",2024-10-21,43.7541051,-79.6056801
/on/etobicoke-real-estate/2-346-park-lawn-rd/home/6VLaGyGaMnB3W1ZD/,"$1,598,000","$1,540,000",Freehold Townhouse,"2 - 346 Park Lawn Rd , Etobicoke - Stonegate-Queensway",2024-10-21,43.639778,-79.4952424
/on/etobicoke-real-estate/10-dimplefield-pl/home/J6Em7bnavvn7XBeq/,"$1,189,000","$1,195,000",Detached,"10 DIMPLEFIELD Pl , Etobicoke - Eringate-Centennial-West Deane",2024-10-20,43.6640925,-79.57384100000002
/on/etobicoke-real-estate/160-north-carson-st/home/eQp5yO8a20Q7d0ZE/,"$1,049,000","$1,043,000",Detached,"160 North Carson St , Etobicoke - Alderwood",2024-10-20,43.6095096,-79.5376109
/on/etobicoke-real-estate/150-simpson-ave/home/4KAX7NONB4V3eRPJ/,"$975,000","$1,310,000",Detached,"150 Simpson Ave , Etobicoke - Mimico",2024-10-20,43.6170292,-79.5065447
/on/etobicoke-real-estate/1205-39-annie-craig-dr/home/NAKv53DmxOwYMnxB/,"$590,000","$580,000",Condo Apt,"1205 - 39 Annie Craig Dr , Etobicoke - Mimico",2024-10-19,43.625812,-79.4778589
/on/etobicoke-real-estate/93-mount-olive-dr/home/10QqypNPaL23LGlV/,"$899,999","$877,000",Detached,"93 Mount Olive Dr , Etobicoke - Mount Olive-Silverstone-Jamestown",2024-10-19,43.7458004,-79.5905989
/on/etobicoke-real-estate/302-3625-lake-shore-blvd-w/home/nM697k5edVbYbmwe/,"$350,000","$320,000",Co-Op Apt,"302 - 3625 Lake Shore Blvd W , Etobicoke - Long Branch",2024-10-19,43.5933394,-79.5359572
/on/etobicoke-real-estate/61-thirty-sixth-st/home/MWBVyZ9Odj4YKemj/,"$1,495,000","$1,300,000",Triplex,"61 Thirty Sixth St , Etobicoke - Long Branch",2024-10-19,43.5916958,-79.5358305
/on/etobicoke-real-estate/43-merrygale-cres/home/JjAXw7QvPJ13QOzg/,"$1,380,000","$1,332,000",Detached,"43 Merrygale Cres , Etobicoke - Eringate-Centennial-West Deane",2024-10-19,43.6572754,-79.5607284
/on/etobicoke-real-estate/25-beaucourt-rd/home/9w8o3m5xZn23GKjm/,"$1,499,000","$1,475,000",Detached,"25 Beaucourt Rd , Etobicoke - Stonegate-Queensway",2024-10-18,43.6332762,-79.4977426
/on/etobicoke-real-estate/11-beaucourt-rd/home/JjAXw7QWE8pYQOzg/,"$4,295,000","$4,110,000",Detached,"11 Beaucourt Rd , Etobicoke - Stonegate-Queensway",2024-10-18,43.6341154,-79.4981722
/on/etobicoke-real-estate/2607-2240-lake-shore-blvd-w/home/x9w8o3mQoLX3GKjm/,"$779,900","$750,000",Condo Apt,"2607 - 2240 Lake Shore Blvd W , Etobicoke - Mimico",2024-10-18,43.6210927,-79.483356
/on/etobicoke-real-estate/58-mendota-rd/home/bEDRYag2a9Q71VaB/,"$988,000","$1,172,000",Duplex,"58 Mendota Rd , Etobicoke - Stonegate-Queensway",2024-10-18,43.62375,-79.4999248
/on/etobicoke-real-estate/27-riverview-hts/home/B5bO3xXqoRk3kWVP/,"$999,999","$1,025,000",Detached,"27 Riverview Hts , Etobicoke - Humber Heights",2024-10-18,43.7019014,-79.5282891
/on/etobicoke-real-estate/17-delma-dr/home/EXrx30XpEbN3OklN/,"$998,000","$1,200,000",Detached,"17 Delma Dr , Etobicoke - Alderwood",2024-10-18,43.6017135,-79.549785
/on/etobicoke-real-estate/907-1185-the-queensway-ave/home/L5VXv3l2Vexyj2q8/,"$559,000","$550,000",Condo Apt,"907 - 1185 The Queensway Ave , Etobicoke - Islington-City Centre West",2024-10-18,43.6218008,-79.5215288
/on/etobicoke-real-estate/1901-251-manitoba-st/home/gJRv53KW0Aq3VPW4/,"$569,900","$540,000",Condo Apt,"1901 - 251 Manitoba St , Etobicoke - Mimico",2024-10-18,43.6238372,-79.4893647
/on/etobicoke-real-estate/1403-61-richview-rd/home/0A9X3jP2nlDyvgxV/,"$650,000","$590,000",Condo Apt,"1403 - 61 Richview Rd , Etobicoke - Humber Heights",2024-10-18,43.684081,-79.5167385
/on/etobicoke-real-estate/208-1050-the-queensway-ave/home/2Z5BX32P1kXyDar0/,"$599,999","$575,000",Condo Apt,"208 - 1050 The Queensway , Etobicoke - Islington-City Centre West",2024-10-18,43.6233479,-79.5171886
/on/etobicoke-real-estate/607-812-burnhamthorpe-rd/home/9w8o3m5a5Nj3GKjm/,"$619,900","$611,000",Condo Apt,"607 - 812 Burnhamthorpe Rd , Etobicoke - Markland Wood",2024-10-18,43.63979579999999,-79.5816917
/on/etobicoke-real-estate/4304-2045-lake-shore-blvd-w/home/BXeEn7X4XQ07rPo8/,"$1,488,000","$1,375,000",Condo Apt,"4304 - 2045 Lake Shore Blvd W , Etobicoke - Mimico",2024-10-18,43.6313539,-79.4746095
/on/etobicoke-real-estate/32-lorene-dr/home/owJKR7PVV8XYXeLP/,"$1,498,000","$1,475,600",Detached,"32 Lorene Dr , Etobicoke - Islington-City Centre West",2024-10-18,43.64533549999999,-79.5559641
/on/etobicoke-real-estate/62-clissold-rd/home/2Z5BX321B1O7Dar0/,"$2,199,000","$2,650,000",Detached,"62 Clissold Rd , Etobicoke - Islington-City Centre West",2024-10-18,43.64244009999999,-79.5240278
/on/etobicoke-real-estate/704-812-burnhamthorpe-rd/home/amgL7A4lvgLyZ1MW/,"$624,900","$611,000",Condo Apt,"704 - 812 Burnhamthorpe Rd , Etobicoke - Markland Wood",2024-10-18,43.63979579999999,-79.5816917
/on/etobicoke-real-estate/46-ravenscrest-dr/home/ZEXrx30Xz5p3OklN/,"$2,480,000","$2,450,000",Detached,"46 Ravenscrest Dr , Etobicoke - Princess-Rosethorn",2024-10-18,43.6598915,-79.5531364
/on/etobicoke-real-estate/1907-2200-lake-shore-blvd-w/home/zVwod7vqvRry5mGN/,"$789,900","$775,000",Condo Apt,"1907 - 2200 Lake Shore Blvd W , Etobicoke - Mimico",2024-10-18,43.6015351,-79.5008962
/on/etobicoke-real-estate/306-58-marine-parade-dr/home/wJKR7P89vVM7XeLP/,"$729,000","$675,000",Condo Apt,"306 - 58 Marine Parade Dr , Etobicoke - Mimico",2024-10-18,43.6189509,-79.4830029
/on/etobicoke-real-estate/1001-110-marine-parade-dr/home/oK8OgYBK4b5yJmG2/,"$1,435,000","$1,330,000",Condo Apt,"1001 - 110 Marine Parade Dr , Etobicoke - Mimico",2024-10-18,43.6253774,-79.47817529999999
/on/etobicoke-real-estate/ph15-11-michael-power-pl/home/zVwod7vGrlD35mGN/,"$628,000","$614,500",Condo Apt,"PH15 - 11 Michael Power Pl , Etobicoke - Islington-City Centre West",2024-10-18,43.6448233,-79.5301071
/on/etobicoke-real-estate/51-kingsview-blvd/home/K8OgYBVle5wYJmG2/,"$1,779,000","$1,568,000",Detached,"51 Kingsview Blvd , Etobicoke - Kingsview Village-The Westway",2024-10-18,43.69779519999999,-79.5547079
/on/etobicoke-real-estate/407-25-neighbourhood-lane/home/0J6Em7b0eqwYXBeq/,"$670,000","$630,000",Condo Apt,"407 - 25 Neighbourhood Lane , Etobicoke - Stonegate-Queensway",2024-10-17,43.6382223,-79.48922499999999
/on/etobicoke-real-estate/11-densmore-ave/home/aD6p781mW5k3wRQr/,"$688,800","$815,000",Detached,"11 Densmore Ave , Etobicoke - Elms-Old Rexdale",2024-10-17,43.7141877,-79.5513349
/on/etobicoke-real-estate/123-treeview-dr/home/dXze3eKaRpey8m9K/,"$999,500","$995,000",Semi-Detached,"123 Treeview Dr , Etobicoke - Alderwood",2024-10-17,43.6117363,-79.53529449999999
/on/etobicoke-real-estate/1107-812-burnhamthorpe-rd/home/xLkv3V9XMPz7DBNr/,"$848,000","$835,000",Condo Apt,"1107 - 812 Burnhamthorpe Rd , Etobicoke - Markland Wood",2024-10-17,43.63979579999999,-79.5816917
/on/etobicoke-real-estate/58-king-georges-rd/home/jAXw7Qw16RXYQOzg/,"$3,375,000","$3,400,000",Detached,"58 King Georges Rd , Etobicoke - Kingsway South",2024-10-17,43.650832,-79.5095133
/on/etobicoke-real-estate/2404-205-sherway-gardens-rd-s/home/EeVbOYEV9dVyx2P0/,"$539,000","$525,000",Condo Apt,"2404 - 205 Sherway Gardens Rd , Etobicoke - Islington-City Centre West",2024-10-17,43.60974119999999,-79.5571642
/on/etobicoke-real-estate/24-burnhamthorpe-park-blvd/home/XRla7gxKXp53jEvL/,"$1,795,000","$1,770,000",Detached,"24 Burnhamthorpe Park Blvd , Etobicoke - Islington-City Centre West",2024-10-17,43.6513243,-79.5357069
/on/etobicoke-real-estate/12-bonnyview-dr/home/N0A9X3jz2aw3vgxV/,"$999,900","$1,200,000",Detached,"12 Bonnyview Dr , Etobicoke - Stonegate-Queensway",2024-10-17,43.6296128,-79.49250169999999
/on/etobicoke-real-estate/94-permfield-path/home/0Zaw5YokXblYn961/,"$788,000","$800,500",Condo Townhouse,"94 Permfield Path , Etobicoke - Etobicoke West Mall",2024-10-17,43.6494414,-79.5673104
/on/etobicoke-real-estate/323-6-drummond-st/home/owJKR7PbrrBYXeLP/,"$799,000","$790,000",Condo Townhouse,"323 - 6 Drummond St , Etobicoke - Mimico",2024-10-17,43.6137372,-79.4981229
/on/etobicoke-real-estate/711-15-la-rose-ave/home/mLzQ1y5nBz47qdeK/,"$649,000","$625,000",Condo Apt,"711 - 15 La Rose Ave , Etobicoke - Humber Heights",2024-10-17,43.68634,-79.51419
/on/etobicoke-real-estate/3533-5-mabelle-ave/home/B5bO3xX241L3kWVP/,"$580,000","$588,000",Condo Apt,"3533 - 5 Mabelle Ave , Etobicoke - Islington-City Centre West",2024-10-16,43.6466642,-79.5255121
/on/etobicoke-real-estate/1067-kipling-ave/home/xmZRW7npOgdYEBO9/,"$1,499,000","$1,825,000",Detached,"1067 Kipling Ave , Etobicoke - Islington-City Centre West",2024-10-16,43.6485336,-79.5378719
/on/etobicoke-real-estate/349-the-westway/home/0MWBVyZzmg2yKemj/,"$999,000","$1,010,000",Detached,"349 The Westway , Etobicoke - Willowridge-Martingrove-Richview",2024-10-16,43.6847971,-79.5595775
/on/etobicoke-real-estate/1312-30-shore-breeze-dr/home/amgL7A4vDNlyZ1MW/,"$599,000","$550,000",Condo Apt,"1312 - 30 Shore Breeze Dr , Etobicoke - Mimico",2024-10-16,43.62377619999999,-79.47963299999999
/on/etobicoke-real-estate/4509-2200-lake-shore-blvd-w/home/JjAXw7QmALM7QOzg/,"$949,900","$940,000",Condo Apt,"4509 - 2200 Lake Shore Blvd W , Etobicoke - Mimico",2024-10-16,43.6015351,-79.5008962
/on/etobicoke-real-estate/404-30-old-mill-rd/home/mLzQ1y5nLwn7qdeK/,"$1,849,000","$1,785,000",Condo Apt,"404 - 30 Old Mill Rd , Etobicoke - Kingsway South",2024-10-16,43.6514739,-79.4937815
/on/etobicoke-real-estate/3109-70-annie-craig-dr/home/XeEn7X6NmgvYrPo8/,"$579,000","$565,000",Condo Apt,"3109 - 70 Annie Craig Dr , Etobicoke - Mimico",2024-10-16,43.6247425,-79.4789275
/on/etobicoke-real-estate/101-alhart-dr/home/amgL7A4ln2LyZ1MW/,"$799,000","$880,000",Detached,"101 Alhart Dr , Etobicoke - Thistletown-Beaumonde Heights",2024-10-15,43.7337069,-79.55616669999999
/on/etobicoke-real-estate/409-1185-the-queensway-ave/home/EeVbOYEd98G3x2P0/,"$589,000","$586,000",Condo Apt,"409 - 1185 The Queensway , Etobicoke - Islington-City Centre West",2024-10-15,43.6218008,-79.5215288
/on/etobicoke-real-estate/108-edgecroft-rd/home/0A9X3jPrnGryvgxV/,"$1,399,000","$1,360,000",Detached,"108 Edgecroft Rd , Etobicoke - Stonegate-Queensway",2024-10-15,43.6283689,-79.5143842
/on/etobicoke-real-estate/383-prince-edward-dr-n/home/J6Em7bnaxZg7XBeq/,"$1,898,000","$1,898,000",Detached,"383 Prince Edward Dr N , Etobicoke - Kingsway South",2024-10-15,43.6518256,-79.5064895
/on/etobicoke-real-estate/8-lillibet-rd/home/0ZxwR7MvjDV3KabB/,"$1,648,000","$1,600,000",Detached,"8 Lillibet Rd , Etobicoke - Stonegate-Queensway",2024-10-15,43.6364586,-79.5121049
/on/etobicoke-real-estate/3906-2200-lake-shore-blvd-w/home/JKdOYrG555Ky54lW/,"$542,900","$520,000",Condo Apt,"3906 - 2200 Lake Shore Blvd W , Etobicoke - Mimico",2024-10-15,43.6015351,-79.5008962
/on/etobicoke-real-estate/202-3563-lake-shore-blvd-w/home/510QqypG011YLGlV/,"$529,000","$529,000",Condo Apt,"202 - 3563 Lake Shore Blvd W , Etobicoke - Long Branch",2024-10-15,43.5942743,-79.5334626
/on/etobicoke-real-estate/506-2240-lake-shore-blvd-w/home/BGMnKYqLNmj3w1Qr/,"$850,000","$843,888",Condo Apt,"506 - 2240 Lake Shore Blvd W , Etobicoke - Mimico",2024-10-15,43.6210927,-79.483356
/on/etobicoke-real-estate/30-davistow-cres/home/gJRv53KkMw63VPW4/,"$848,000","$962,500",Detached,"30 Davistow Cres , Etobicoke - Mount Olive-Silverstone-Jamestown",2024-10-15,43.738033,-79.5855337
/on/etobicoke-real-estate/141-harbourview-cres/home/2Z5BX32wmRXYDar0/,"$1,325,000","$1,281,500",Freehold Townhouse,"141 Harbourview Cres , Etobicoke - Mimico",2024-10-15,43.6220144,-79.4884786
/on/etobicoke-real-estate/716-859-the-queensway/home/9w8o3m55G6X3GKjm/,"$768,000","$750,000",Condo Apt,"716 - 859 The Queensway , Etobicoke - Stonegate-Queensway",2024-10-15,43.6245585,-79.5097756
/on/etobicoke-real-estate/43-countryman-circ/home/amgL7A4lkAlyZ1MW/,"$1,099,000","$1,050,000",Detached,"43 Countryman Circ , Etobicoke - West Humber-Clairville",2024-10-15,43.7344689,-79.60037539999999
/on/etobicoke-real-estate/1621-30-shore-breeze-dr/home/GMnKYqp5BpR3w1Qr/,"$599,000","$625,000",Condo Apt,"1621 - 30 Shore Breeze Dr , Etobicoke - Mimico",2024-10-15,43.62377619999999,-79.47963299999999
/on/etobicoke-real-estate/40-orkney-cres/home/L4KAX7Nx6wOYeRPJ/,"$2,200,000","$2,150,000",Detached,"40 Orkney Cres , Etobicoke - Princess-Rosethorn",2024-10-14,43.6717109,-79.54604739999999
/on/etobicoke-real-estate/36-ludgate-dr/home/bqB176WDvkv3ZajD/,"$899,900","$870,000",Detached,"36 Ludgate Dr , Etobicoke - Rexdale-Kipling",2024-10-14,43.7319972,-79.5745347
/on/etobicoke-real-estate/2603-10-park-lawn-rd/home/NAKv53DgO9d7MnxB/,"$579,900","$565,000",Condo Apt,"2603 - 10 Park Lawn Rd , Etobicoke - Mimico",2024-10-14,43.6233108,-79.48375089999999
/on/etobicoke-real-estate/1609-340-dixon-rd/home/damgL7ADB15yZ1MW/,"$375,000","$400,000",Condo Apt,"1609 - 340 Dixon Rd , Etobicoke - Kingsview Village-The Westway",2024-10-14,43.6960392,-79.55411959999999
/on/etobicoke-real-estate/17-fletcher-place/home/B5bO3xXXWD63kWVP/,"$1,099,999","$990,000",Detached,"17 Fletcher Pl , Etobicoke - Kingsview Village-The Westway",2023-12-31,43.6906992,-79.5460767
/on/etobicoke-real-estate/1726-700-humberwood-blvd/home/weQp5yOwmOByd0ZE/,"$549,900","$528,000",Condo Apt,"1726 - 700 Humberwood Blvd , Etobicoke - West Humber-Clairville",2023-12-31,43.7247099,-79.6166527
/on/etobicoke-real-estate/1308-36-park-lawn-rd/home/mLzQ1y5xpZqYqdeK/,"$605,000","$565,000",Condo Apt,"1308 - 36 Park Lawn Rd , Etobicoke - Mimico",2023-12-29,43.6235942,-79.4845177
/on/etobicoke-real-estate/2009-299-mill-rd/home/J6Em7bnnlMx7XBeq/,"$599,900","$590,000",Condo Apt,"2009 - 299 Mill Rd , Etobicoke - Markland Wood",2023-12-29,43.6384555,-79.58207519999999
/on/etobicoke-real-estate/1607-5-valhalla-inn-rd-e/home/gaQmD7zOvxA3J9Bo/,"$529,000","$525,000",Condo Apt,"1607 - 5 Valhalla Inn Rd E , Etobicoke - Islington-City Centre West",2023-12-29,43.6401771,-79.55999849999999
/on/etobicoke-real-estate/1510-511-the-west-mall-w/home/1DBW7RDDBnxYqlAp/,"$589,000","$582,000",Condo Apt,"1510 - 511 The West Mall W , Etobicoke - Etobicoke West Mall",2023-12-29,43.6505403,-79.5685931
/on/etobicoke-real-estate/517-4208-dundas-st-w/home/jJKdOYrEMpn354lW/,"$599,900","$585,000",Condo Apt,"517 - 4208 Dundas St W , Etobicoke - Edenbridge-Humber Valley",2023-12-29,43.6606066,-79.5117534
/on/etobicoke-real-estate/2202-10-park-lawn-rd/home/L4KAX7NKnV43eRPJ/,"$639,900","$640,000",Condo Apt,"2202 - 10 Park Lawn Rd , Etobicoke - Mimico",2023-12-29,43.6233108,-79.48375089999999
/on/etobicoke-real-estate/5408-30-shore-breeze-dr/home/02Zpj391RkO3DrK8/,"$699,000","$675,000",Condo Apt,"5408 - 30 Shore Breeze Dr , Etobicoke - Mimico",2023-12-29,43.62377619999999,-79.47963299999999
/on/etobicoke-real-estate/2610-6-eva-rd/home/10QqypNNX5m3LGlV/,"$470,000","$465,000",Condo Apt,"2610 - 6 Eva Rd , Etobicoke - Etobicoke West Mall",2023-12-29,43.6406065,-79.56235989999999
/on/etobicoke-real-estate/1610-3845-lake-shore-blvd-w/home/amgL7A44ZpEyZ1MW/,"$595,000","$560,000",Condo Apt,"1610 - 3845 Lake Shore Blvd W , Etobicoke - Long Branch",2023-12-29,43.5906111,-79.544298
/on/etobicoke-real-estate/179-van-dusen-blvd/home/xLkv3V99bPn7DBNr/,"$1,089,000","$1,230,100",Detached,"179 Van Dusen Blvd , Etobicoke - Islington-City Centre West",2023-12-29,43.6409716,-79.52361259999999
/on/etobicoke-real-estate/1507-90-park-lawn-rd/home/0ZxwR7MrOm3KabBA/,"$749,000","$730,000",Condo Apt,"1507 - 90 Park Lawn Rd , Etobicoke - Mimico",2023-12-28,43.6243974,-79.4852196
/on/etobicoke-real-estate/1509-299-mill-rd/home/2Z5BX32JGD13Dar0/,"$609,000","$550,000",Condo Apt,"1509 - 299 Mill Rd , Etobicoke - Markland Wood",2023-12-28,43.6384555,-79.58207519999999
/on/etobicoke-real-estate/802-1403-royal-york-rd/home/eQp5yO88aE17d0ZE/,"$728,800","$705,000",Condo Apt,"802 - 1403 Royal York Rd , Etobicoke - Humber Heights",2023-12-28,43.6830016,-79.5257434
/on/etobicoke-real-estate/17-windsor-rd/home/K8OgYBVODp5YJmG2/,"$1,299,888","$1,285,000",Detached,"17 Windsor Rd , Etobicoke - Kingsview Village-The Westway",2023-12-28,43.6985669,-79.5556244
/on/etobicoke-real-estate/26-pony-farm-dr/home/nbq6y100AkDYo9DA/,"$1,399,888","$1,350,000",Freehold Townhouse,"26 Pony Farm Dr , Etobicoke - Willowridge-Martingrove-Richview",2023-12-28,43.6769893,-79.55481549999999
/on/etobicoke-real-estate/1412-2083-lake-shore-blvd-w/home/BDO1w3WOL9l38Jg0/,"$615,000","$610,000",Condo Apt,"1412 - 2083 Lake Shore Blvd W , Etobicoke - Mimico",2023-12-27,43.62988989999999,-79.47686089999999
/on/etobicoke-real-estate/1829-2-eva-rd/home/Xawjy41KAmp7rR18/,"$619,900","$580,000",Condo Apt,"1829 - 2 Eva Rd , Etobicoke - Etobicoke West Mall",2023-12-27,43.6404182,-79.56257389999999
/on/etobicoke-real-estate/1410-20-thomas-riley-rd/home/VaD6p784MX67wRQr/,"$599,999","$560,000",Condo Apt,"1410 - 20 Thomas Riley Rd , Etobicoke - Islington-City Centre West",2023-12-27,43.634172,-79.5406824
/on/etobicoke-real-estate/2622-165-legion-rd-n/home/BXeEn7XNWwdYrPo8/,"$499,900","$500,000",Condo Apt,"2622 - 165 Legion Rd N , Etobicoke - Mimico",2023-12-25,43.6241214,-79.48801
/on/etobicoke-real-estate/331-markland-dr/home/mZRW7naBNVPyEBO9/,"$1,899,900","$1,750,000",Detached,"331 Markland Dr , Etobicoke - Markland Wood",2023-12-24,43.6268504,-79.5735358
/on/etobicoke-real-estate/1107-2261-lake-shore-blvd-w/home/a6zqW7dKrgVy5eZE/,"$1,289,000","$1,208,000",Condo Apt,"1107 - 2261 Lake Shore Blvd W , Etobicoke - Mimico",2023-12-24,43.6198821,-79.4833294
/on/etobicoke-real-estate/3408-36-park-lawn-rd/home/L4KAX7NbZ4r7eRPJ/,"$570,000","$550,000",Condo Apt,"3408 - 36 Park Lawn Rd , Etobicoke - Mimico",2023-12-23,43.6235942,-79.4845177
/on/etobicoke-real-estate/510-15-la-rose-ave/home/damgL7AlZ2pyZ1MW/,"$599,900","$560,000",Condo Apt,"510 - 15 La Rose Ave , Etobicoke - Humber Heights",2023-12-23,43.68634,-79.51419
/on/etobicoke-real-estate/1828-165-legion-rd-n/home/zVwod7vAe8y5mGNk/,"$599,000","$525,000",Condo Apt,"1828 - 165 Legion Rd N , Etobicoke - Mimico",2023-12-23,43.6241214,-79.48801
/on/etobicoke-real-estate/126-redgrave-drive/home/nbq6y100gmaYo9DA/,"$850,000","$860,000",Semi-Detached,"126 Redgrave Dr , Etobicoke - Willowridge-Martingrove-Richview",2023-12-23,43.6794654,-79.57116380000001
/on/etobicoke-real-estate/2608-380-dixon-rd-rd/home/J6Em7bnevAg7XBeq/,"$429,000","$420,000",Condo Apt,"2608 - 380 Dixon Rd Rd , Etobicoke - Kingsview Village-The Westway",2023-12-23,43.6949961,-79.5567885
/on/etobicoke-real-estate/105-32-fieldway-rd/home/J6Em7bnewBL7XBeq/,"$699,900","$695,000",Condo Townhouse,"105 - 32 Fieldway Rd , Etobicoke - Islington-City Centre West",2023-12-23,43.6419582,-79.5282098
/on/etobicoke-real-estate/55-thirty-eighth-st/home/0J6Em7bPBlGYXBeq/,"$1,999,900","$1,950,000",Multiplex,"55 Thirty Eighth St , Etobicoke - Long Branch",2023-12-23,43.5915617,-79.538404
/on/etobicoke-real-estate/2324-2-eva-rd/home/gJRv53KjzlX7VPW4/,"$599,900","$557,500",Condo Apt,"2324 - 2 Eva Rd , Etobicoke - Etobicoke West Mall",2023-12-22,43.6404182,-79.56257389999999
/on/etobicoke-real-estate/45-yorkleigh-ave/home/6VLaGyG0VAA7W1ZD/,"$2,749,000","$2,575,000",Detached,"45 Yorkleigh Ave , Etobicoke - Humber Heights",2023-12-22,43.6950095,-79.5251339
/on/etobicoke-real-estate/4675-dundas-st-w/home/knbq6y1JeW97o9DA/,"$1,499,000","$1,350,000",Detached,"4675 Dundas St W , Etobicoke - Kingsway South",2023-12-22,43.65397480000001,-79.5234329
/on/etobicoke-real-estate/122-twenty-second-st/home/GMnKYqpb14B3w1Qr/,"$795,000","$690,000",Detached,"122 Twenty Second St , Etobicoke - Long Branch",2023-12-22,43.5933961,-79.5382607
/on/etobicoke-real-estate/1804-2285-lakeshore-blvd-w/home/XeEn7X6pX6oYrPo8/,"$599,900","$592,000",Condo Apt,"1804 - 2285 Lakeshore Blvd W , Etobicoke - Mimico",2023-12-22,43.6187415,-79.48552610000002
/on/etobicoke-real-estate/73a-james-st/home/knbq6y1GrMx3o9DA/,"$1,699,999","$1,625,000",Detached,"73A James St , Etobicoke - Long Branch",2023-12-22,43.5898374,-79.540899
/on/etobicoke-real-estate/3-sims-cres/home/kbEDRYaWxjO71VaB/,"$2,195,000","$1,960,000",Detached,"3 Sims Cres , Etobicoke - Thistletown-Beaumonde Heights",2023-12-22,43.7295031,-79.5559459
/on/etobicoke-real-estate/501-716-the-west-mall/home/jAXw7QwAdzbYQOzg/,"$499,000","$660,000",Condo Apt,"501 - 716 The West Mall , Etobicoke - Eringate-Centennial-West Deane",2023-12-22,43.656473,-79.5701414
/on/etobicoke-real-estate/210-80-marine-parade-dr/home/weQp5yOMZw3d0ZE2/,"$599,900","$580,000",Condo Apt,"210 - 80 Marine Parade Dr , Etobicoke - Mimico",2023-12-21,43.6261946,-79.47738609999999
/on/etobicoke-real-estate/17-old-oak-rd/home/BDO1w3W14Noy8Jg0/,"$2,198,000","$2,080,000",Detached,"17 Old Oak Rd , Etobicoke - Kingsway South",2023-12-21,43.6546516,-79.5214548
